{
"type": "FeatureCollection",
"name": "lowheaddams",
"crs": { "type": "name", "properties": { "name": "urn:ogc:def:crs:OGC:1.3:CRS84" } },
"features": [
{ "type": "Feature", "properties": { "name": "WCFCCS Drop Structure 2 at Bancroft Rd.", "city": "Concord", "county": "Contra Costa", "state": "CA", "linkno": 710666950.0, "reach_id": 2789571.0, "num_fatalities": 2, "Qmin": 0.120351085, "Qmax": 213.6537452 }, "geometry": { "type": "Point", "coordinates": [ -122.0475322, 37.9356167 ] } },
{ "type": "Feature", "properties": { "name": "Daguerre Point Dam", "city": "Marysville", "county": "Yuba", "state": "CA", "linkno": 710795843.0, "reach_id": 948020915.0, "num_fatalities": 2, "Qmin": 220.4134815, "Qmax": 2682.21119 }, "geometry": { "type": "Point", "coordinates": [ -121.444039, 39.208585 ] } },
{ "type": "Feature", "properties": { "name": "Wanawish Dam / Horn Rapids Dam", "city": "West Richland", "county": "Benton", "state": "WA", "linkno": 720227605.0, "reach_id": 23099462.0, "num_fatalities": 2, "Qmin": 29.677916, "Qmax": 1459.195801 }, "geometry": { "type": "Point", "coordinates": [ -119.416979, 46.3788294 ] } },
{ "type": "Feature", "properties": { "name": "Swackhammer Dam Fish Ladder", "city": "Union", "county": "Union", "state": "OR", "linkno": 720199958.0, "reach_id": 23429068.0, "num_fatalities": 1, "Qmin": 0.669999985, "Qmax": 54.43164761 }, "geometry": { "type": "Point", "coordinates": [ -117.872503, 45.211782 ] } },
{ "type": "Feature", "properties": { "name": "Chester Dam on Henry's Fork", "city": "Saint Anthony", "county": "Fremont", "state": "ID", "linkno": 720235790.0, "reach_id": 23141659.0, "num_fatalities": 1, "Qmin": 22.14416617, "Qmax": 595.7705687 }, "geometry": { "type": "Point", "coordinates": [ -111.5835535, 44.018299 ] } },
{ "type": "Feature", "properties": { "name": "Salt River near S McClintock Dr", "city": "Tempe", "county": "Maricopa", "state": "AZ", "linkno": 710482666.0, "reach_id": 20480320.0, "num_fatalities": 2, "Qmin": 14.94999967, "Qmax": 18.64523763 }, "geometry": { "type": "Point", "coordinates": [ -111.91039, 33.434585 ] } },
{ "type": "Feature", "properties": { "name": "Price Stubs Diversion Dam", "city": "Palisade", "county": "Mesa", "state": "CO", "linkno": 710904968.0, "reach_id": 3179652.0, "num_fatalities": 1, "Qmin": 1291.225804, "Qmax": 1291.225804 }, "geometry": { "type": "Point", "coordinates": [ -108.325, 39.12783 ] } },
{ "type": "Feature", "properties": { "name": "Clear Creek Drop Structures in Adams County", "city": "Idaho Springs", "county": "Clear Creek", "state": "CO", "linkno": 760624835.0, "reach_id": 2885542.0, "num_fatalities": 1, "Qmin": 0.881980888, "Qmax": 38.43041581 }, "geometry": { "type": "Point", "coordinates": [ -105.6813199, 39.7429308 ] } },
{ "type": "Feature", "properties": { "name": "Near Belle Fourche", "city": "Belle Fourche", "county": "Butte", "state": "SD", "linkno": 760672712.0, "reach_id": 5453172.0, "num_fatalities": 1, "Qmin": 8.568078949, "Qmax": 445.93624 }, "geometry": { "type": "Point", "coordinates": [ -103.831, 44.69085 ] } },
{ "type": "Feature", "properties": { "name": "Dam near the Haven River Inn", "city": "Comfort", "county": "Kendall", "state": "TX", "linkno": 770513014.0, "reach_id": 3589508.0, "num_fatalities": 1, "Qmin": 38.17829137, "Qmax": 775.4066493 }, "geometry": { "type": "Point", "coordinates": [ -98.8864, 29.96893 ] } },
{ "type": "Feature", "properties": { "name": "Trinity Falls Dam near Trinity River park", "city": "Fort Worth", "county": "Tarrant", "state": "TX", "linkno": 770479639.0, "reach_id": 1268904.0, "num_fatalities": 3, "Qmin": 19.21130817, "Qmax": 440.0137402 }, "geometry": { "type": "Point", "coordinates": [ -97.3768, 32.7203 ] } },
{ "type": "Feature", "properties": { "name": "Riverside Drive Dam south of W 23rd Street", "city": "Tulsa", "county": "Tulsa", "state": "OK", "linkno": 760645077.0, "reach_id": 368123.0, "num_fatalities": 2, "Qmin": 64.38041523, "Qmax": 1329.611763 }, "geometry": { "type": "Point", "coordinates": [ -95.9883, 36.12086 ] } },
{ "type": "Feature", "properties": { "name": "Dam on Kansas River near Topeka Water Treatment Plant", "city": "Topeka", "county": "Shawnee", "state": "KS", "linkno": 760746356.0, "reach_id": 3646792.0, "num_fatalities": 2, "Qmin": 3552.662837, "Qmax": 3552.662837 }, "geometry": { "type": "Point", "coordinates": [ -95.7158, 39.07278 ] } },
{ "type": "Feature", "properties": { "name": "Kansas River below Nelson Island", "city": "Kansas City", "county": "Wyandotte", "state": "KS", "linkno": 760679798.0, "reach_id": 3727857.0, "num_fatalities": 1, "Qmin": 4418.719901, "Qmax": 4418.719901 }, "geometry": { "type": "Point", "coordinates": [ -94.7862, 39.0465 ] } },
{ "type": "Feature", "properties": { "name": "Dam located by Baltic River Park", "city": "Baltic", "county": "Minnehaha", "state": "SD", "linkno": 760592909.0, "reach_id": 7223946.0, "num_fatalities": 1, "Qmin": 10.12749977, "Qmax": 38.43886619 }, "geometry": { "type": "Point", "coordinates": [ -96.7382, 43.76487 ] } },
{ "type": "Feature", "properties": { "name": "Flandreau Dam near 1st Ave and N Crescent St", "city": "Flandreau", "county": "Moody", "state": "SD", "linkno": 760539639.0, "reach_id": 7219276.0, "num_fatalities": 1, "Qmin": 9.979999777, "Qmax": 170.1430873 }, "geometry": { "type": "Point", "coordinates": [ -96.5919, 44.05273 ] } },
{ "type": "Feature", "properties": { "name": "Shoal Creek Dam near Lime Kiln Dr", "city": "Neosho", "county": "Newton", "state": "MO", "linkno": 760580122.0, "reach_id": 7592437.0, "num_fatalities": 3, "Qmin": 0.30999999299999997, "Qmax": 9.995380265 }, "geometry": { "type": "Point", "coordinates": [ -94.368, 36.89653 ] } },
{ "type": "Feature", "properties": { "name": "Clarinda Dam near Clarinda Water Filter Plant", "city": "Clarinda", "county": "Page", "state": "IA", "linkno": 760601460.0, "reach_id": 19129083.0, "num_fatalities": 2, "Qmin": 872.7258138, "Qmax": 872.7258138 }, "geometry": { "type": "Point", "coordinates": [ -95.0137, 40.74206 ] } },
{ "type": "Feature", "properties": { "name": "Scott Street Dam south of SE 1st St", "city": "Des Moines", "county": "Polk", "state": "IA", "linkno": 760591413.0, "reach_id": 22249381.0, "num_fatalities": 4, "Qmin": 14.34333301, "Qmax": 213.043529 }, "geometry": { "type": "Point", "coordinates": [ -93.6096, 41.57939 ] } },
{ "type": "Feature", "properties": { "name": "Center Street Dam south of River Hills Park", "city": "Des Moines", "county": "Polk", "state": "IA", "linkno": 760687921.0, "reach_id": 6597748.0, "num_fatalities": 5, "Qmin": 8.930833134, "Qmax": 558.2558299 }, "geometry": { "type": "Point", "coordinates": [ -93.6187, 41.59147 ] } },
{ "type": "Feature", "properties": { "name": "Boone Water Works Low-head Dam", "city": "Boone", "county": "Boone", "state": "IA", "linkno": 760641293.0, "reach_id": 6595222.0, "num_fatalities": 4, "Qmin": 6.681249851, "Qmax": 43.70608163 }, "geometry": { "type": "Point", "coordinates": [ -93.9366, 42.07737 ] } },
{ "type": "Feature", "properties": { "name": "Fort Dodge Little Dam", "city": "Fort Dodge", "county": "Webster", "state": "IA", "linkno": 760556394.0, "reach_id": 6594448.0, "num_fatalities": 2, "Qmin": 240.5934291, "Qmax": 1056.061643 }, "geometry": { "type": "Point", "coordinates": [ -94.2003442, 42.5163274 ] } },
{ "type": "Feature", "properties": { "name": "Alden Dam right off of Main St", "city": "Alden", "county": "Hardin", "state": "IA", "linkno": 760536426.0, "reach_id": 6570892.0, "num_fatalities": 1, "Qmin": 351.9087421, "Qmax": 351.9087421 }, "geometry": { "type": "Point", "coordinates": [ -93.3767788, 42.521441 ] } },
{ "type": "Feature", "properties": { "name": "Waverly Dam right off of E Bremer Ave", "city": "Waverly", "county": "Bremer", "state": "IA", "linkno": 760518109.0, "reach_id": null, "num_fatalities": 1, "Qmin": null, "Qmax": null }, "geometry": { "type": "Point", "coordinates": [ -92.4707656, 42.7265354 ] } },
{ "type": "Feature", "properties": { "name": "Alcock Park Dam", "city": "Tripoli", "county": "Bremer", "state": "IA", "linkno": 760483151.0, "reach_id": 6948552.0, "num_fatalities": 1, "Qmin": 0.16999999599999999, "Qmax": 11.43358824 }, "geometry": { "type": "Point", "coordinates": [ -92.3107, 42.88262 ] } },
{ "type": "Feature", "properties": { "name": "Independence Lower Dam right off of 1st St W", "city": "Independence", "county": "Buchanan", "state": "IA", "linkno": 760541424.0, "reach_id": 6950758.0, "num_fatalities": 1, "Qmin": 0.88999998, "Qmax": 434.0834893 }, "geometry": { "type": "Point", "coordinates": [ -91.8946, 42.46932 ] } },
{ "type": "Feature", "properties": { "name": "REA Dam near Winnebago Park", "city": "Cedar Rapids", "county": "Linn", "state": "IA", "linkno": 760662936.0, "reach_id": 17556783.0, "num_fatalities": 4, "Qmin": 8.79416647, "Qmax": 355.2191246 }, "geometry": { "type": "Point", "coordinates": [ -91.6302844, 41.9443543 ] } },
{ "type": "Feature", "properties": { "name": "Iowa River Power Co. Dam near 5th St Pl", "city": "Coralville", "county": "Johnson", "state": "IA", "linkno": 760593068.0, "reach_id": 11916305.0, "num_fatalities": 2, "Qmin": 4.220833239, "Qmax": 271.8349131 }, "geometry": { "type": "Point", "coordinates": [ -91.5645395, 41.6741682 ] } },
{ "type": "Feature", "properties": { "name": "Burlington Street Dam right off of W Burlington St", "city": "Iowa City", "county": "Johnson", "state": "IA", "linkno": 760637998.0, "reach_id": 11916315.0, "num_fatalities": 6, "Qmin": 5.262499882, "Qmax": 180.6785661 }, "geometry": { "type": "Point", "coordinates": [ -91.5410718, 41.6577681 ] } },
{ "type": "Feature", "properties": { "name": "Dresbach Dam right off of Interstate 90", "city": "La Crosse", "county": "La Crosse", "state": "WI", "linkno": 760301701.0, "reach_id": 2456580.0, "num_fatalities": 2, "Qmin": 313.4891597, "Qmax": 1272.471829 }, "geometry": { "type": "Point", "coordinates": [ -91.3075, 43.86677 ] } },
{ "type": "Feature", "properties": { "name": "Sauk River Dam", "city": "Cold Spring", "county": "Stearns", "state": "MN", "linkno": 760714254.0, "reach_id": null, "num_fatalities": 1, "Qmin": null, "Qmax": null }, "geometry": { "type": "Point", "coordinates": [ -94.422821, 45.455246 ] } },
{ "type": "Feature", "properties": { "name": "Snake River Dam west of Cross Lake Rd", "city": "Pine City", "county": "Pine", "state": "MN", "linkno": 760650991.0, "reach_id": 2639242.0, "num_fatalities": 1, "Qmin": null, "Qmax": null }, "geometry": { "type": "Point", "coordinates": [ -92.9393, 45.83959 ] } },
{ "type": "Feature", "properties": { "name": "Yorkville Dam / Glen D Palmer Dam", "city": "Yorkville", "county": "Kendall", "state": "IL", "linkno": 760556464.0, "reach_id": 14763017.0, "num_fatalities": 4, "Qmin": 14.43541634, "Qmax": 124.1298415 }, "geometry": { "type": "Point", "coordinates": [ -88.4430095, 41.6434738 ] } },
{ "type": "Feature", "properties": { "name": "Wilmington Dam", "city": "Wilmington", "county": "Will", "state": "IL", "linkno": 760576460.0, "reach_id": 13439227.0, "num_fatalities": 6, "Qmin": 443.809834, "Qmax": 1837.582922 }, "geometry": { "type": "Point", "coordinates": [ -88.151482, 41.300576 ] } },
{ "type": "Feature", "properties": { "name": "Bosher Dam just west of Edward E Willey Memorial Bridge", "city": "Richmond", "county": "Henrico", "state": "VA", "linkno": 750126335.0, "reach_id": 8574071.0, "num_fatalities": 2, "Qmin": 17.94291627, "Qmax": 287.1185121 }, "geometry": { "type": "Point", "coordinates": [ -77.575713, 37.560015 ] } },
{ "type": "Feature", "properties": { "name": "Maury River Dam by Jordan's Point Park", "city": "Lexington", "county": "Rockbridge", "state": "VA", "linkno": 750107977.0, "reach_id": 8539507.0, "num_fatalities": 1, "Qmin": 0.079166665, "Qmax": 0.079166665 }, "geometry": { "type": "Point", "coordinates": [ -79.428417, 37.793263 ] } },
{ "type": "Feature", "properties": { "name": "Riverton Dam south end of Bennys Beach Rd", "city": "Front Royal", "county": "Warren", "state": "VA", "linkno": 750109722.0, "reach_id": 8446520.0, "num_fatalities": 3, "Qmin": 10.42124977, "Qmax": 1091.874967 }, "geometry": { "type": "Point", "coordinates": [ -78.148141, 38.954287 ] } },
{ "type": "Feature", "properties": { "name": "Dashields Lock and Dam", "city": "Edgeworth", "county": "Allegheny", "state": "PA", "linkno": 760771205.0, "reach_id": 3821215.0, "num_fatalities": 3, "Qmin": 110.7562475, "Qmax": 1809.493725 }, "geometry": { "type": "Point", "coordinates": [ -80.2035, 40.55118 ] } },
{ "type": "Feature", "properties": { "name": "Holtwood Dam west of Owl Bridge Rd", "city": "Washington Boro", "county": "Lancaster", "state": "PA", "linkno": null, "reach_id": 4724417.0, "num_fatalities": 1, "Qmin": 1.701051972, "Qmax": 13.29958304 }, "geometry": { "type": "Point", "coordinates": [ -76.3934, 39.97987 ] } },
{ "type": "Feature", "properties": { "name": "Fishing Creek Dam south of Crickside Ln", "city": "Shickshinny", "county": "Columbia", "state": "PA", "linkno": 750120319.0, "reach_id": 2602439.0, "num_fatalities": 1, "Qmin": 276.2599938, "Qmax": 276.2599938 }, "geometry": { "type": "Point", "coordinates": [ -76.299349, 41.128594 ] } },
{ "type": "Feature", "properties": { "name": "Island Farm Weir southeast of Cooper Street Park", "city": "South Bound Brook", "county": "Somerset", "state": "NJ", "linkno": 750128031.0, "reach_id": 9513420.0, "num_fatalities": 1, "Qmin": null, "Qmax": null }, "geometry": { "type": "Point", "coordinates": [ -74.566142, 40.542847 ] } },
{ "type": "Feature", "properties": { "name": "Low-head dam in Claryville near Denning Rd and Red Hill Rd", "city": "Claryville", "county": "Ulster", "state": "NY", "linkno": 750049256.0, "reach_id": 4147394.0, "num_fatalities": 1, "Qmin": 0.221666662, "Qmax": 130.8595804 }, "geometry": { "type": "Point", "coordinates": [ -74.539839, 41.926121 ] } },
{ "type": "Feature", "properties": { "name": "Androscoggin River Dam north of Androscoggin River Reservoir", "city": "Gorham", "county": "Coos", "state": "NH", "linkno": 750101878.0, "reach_id": 19335269.0, "num_fatalities": 1, "Qmin": 27.20333273, "Qmax": 99.50393895000001 }, "geometry": { "type": "Point", "coordinates": [ -71.1951, 44.40839 ] } },
{ "type": "Feature", "properties": { "name": "Dock Street Dam", "city": "Harrisburg", "county": "Dauphin", "state": "PA", "linkno": 750115015.0, "reach_id": 4710000.0, "num_fatalities": 18, "Qmin": 87.49916471, "Qmax": 1179.633912 }, "geometry": { "type": "Point", "coordinates": [ -76.8779, 40.24908 ] } },
{ "type": "Feature", "properties": { "name": "Small dam in Battle Creek Regional Park", "city": "Saint Paul", "county": "Ramsey", "state": "MN", "linkno": 760443059.0, "reach_id": 1103808.0, "num_fatalities": 1, "Qmin": 23.18208282, "Qmax": 23.18208282 }, "geometry": { "type": "Point", "coordinates": [ -93.022653, 44.940293 ] } },
{ "type": "Feature", "properties": { "name": "Platte River dam near Platte Lake", "city": "Harding", "county": "Morrison", "state": "MN", "linkno": 760524504.0, "reach_id": 4971051.0, "num_fatalities": 1, "Qmin": 7.248333171, "Qmax": 7.248333171 }, "geometry": { "type": "Point", "coordinates": [ -94.054681, 46.140668 ] } },
{ "type": "Feature", "properties": { "name": "Faribault Dam on Straight River", "city": "Faribault", "county": "Rice", "state": "MN", "linkno": 760521316.0, "reach_id": 2032881.0, "num_fatalities": 2, "Qmin": null, "Qmax": null }, "geometry": { "type": "Point", "coordinates": [ -93.272946, 44.307591 ] } },
{ "type": "Feature", "properties": { "name": "Anoka Dam near Main St. and Ferry St.", "city": "Anoka", "county": "Anoka", "state": "MN", "linkno": 760682655.0, "reach_id": null, "num_fatalities": 1, "Qmin": null, "Qmax": null }, "geometry": { "type": "Point", "coordinates": [ -93.391, 45.19954 ] } },
{ "type": "Feature", "properties": { "name": "Sunrise River dam SW of Long Lake", "city": "North Branch", "county": "Chisago", "state": "MN", "linkno": 760626059.0, "reach_id": 2648146.0, "num_fatalities": 1, "Qmin": 1.33999997, "Qmax": 44.42499901 }, "geometry": { "type": "Point", "coordinates": [ -92.875088, 45.479722 ] } },
{ "type": "Feature", "properties": { "name": "Rochester Dam on Silver Lake", "city": "Rochester", "county": "Olmsted", "state": "MN", "linkno": 760501369.0, "reach_id": 2441766.0, "num_fatalities": 1, "Qmin": 0.629999986, "Qmax": 471.9487395 }, "geometry": { "type": "Point", "coordinates": [ -92.4623, 44.03708 ] } },
{ "type": "Feature", "properties": { "name": "Mississippi River Lock & Dam No. 5A", "city": "Goodview", "county": "Winona", "state": "MN", "linkno": null, "reach_id": 2118864.0, "num_fatalities": 2, "Qmin": 294.1849934, "Qmax": 1284.302763 }, "geometry": { "type": "Point", "coordinates": [ -91.6817, 44.0811 ] } },
{ "type": "Feature", "properties": { "name": "Sauk Centre Dam on Sauk Lake", "city": "Sauk Centre", "county": "Stearns", "state": "MN", "linkno": 760562806.0, "reach_id": 4980010.0, "num_fatalities": 1, "Qmin": 47.50249894, "Qmax": 47.50249894 }, "geometry": { "type": "Point", "coordinates": [ -94.9519, 45.74023 ] } },
{ "type": "Feature", "properties": { "name": "Mississippi River St. Anthony Lock & Dam", "city": "Minneapolis", "county": "Hennepin", "state": "MN", "linkno": 760659376.0, "reach_id": 1104206.0, "num_fatalities": 1, "Qmin": 112.3808308, "Qmax": 964.8007568 }, "geometry": { "type": "Point", "coordinates": [ -93.24775, 44.9793 ] } },
{ "type": "Feature", "properties": { "name": "Ann River Dam near Fish Lake", "city": "Mora", "county": "Kanabec", "state": "MN", "linkno": 760557808.0, "reach_id": 2640072.0, "num_fatalities": 1, "Qmin": 32.34916594, "Qmax": 32.34916594 }, "geometry": { "type": "Point", "coordinates": [ -93.287025, 45.84732 ] } },
{ "type": "Feature", "properties": { "name": "Gorman Lake Dam", "city": "Le Center", "county": "Le Sueur", "state": "MN", "linkno": 760524641.0, "reach_id": 2033773.0, "num_fatalities": 1, "Qmin": null, "Qmax": null }, "geometry": { "type": "Point", "coordinates": [ -93.657677, 44.334442 ] } },
{ "type": "Feature", "properties": { "name": "Williams Dam near Williams Dam Public Fishing Area", "city": "Williams", "county": "Lawrence", "state": "IN", "linkno": 760787977.0, "reach_id": 18445656.0, "num_fatalities": 2, "Qmin": 5.800416537, "Qmax": 2065.336478 }, "geometry": { "type": "Point", "coordinates": [ -86.645, 38.80183 ] } },
{ "type": "Feature", "properties": { "name": "Mississippi River Lock & Dam No. 1", "city": "Saint Paul", "county": "Ramsey", "state": "MN", "linkno": 760664372.0, "reach_id": 1104206.0, "num_fatalities": 1, "Qmin": 1820.204126, "Qmax": 1820.204126 }, "geometry": { "type": "Point", "coordinates": [ -93.201058, 44.915519 ] } },
{ "type": "Feature", "properties": { "name": "Crow Wing River dam on Lake Placid", "city": "Pillager", "county": "Cass", "state": "MN", "linkno": 760529483.0, "reach_id": 4947369.0, "num_fatalities": 1, "Qmin": 13.08041637, "Qmax": 367.8145751 }, "geometry": { "type": "Point", "coordinates": [ -94.4849, 46.3159 ] } },
{ "type": "Feature", "properties": { "name": "Grindstone River Dam on Grindstone Reservoir", "city": "Hinckley", "county": "Pine", "state": "MN", "linkno": 760504545.0, "reach_id": 2629550.0, "num_fatalities": 1, "Qmin": 56.11083208, "Qmax": 56.11083208 }, "geometry": { "type": "Point", "coordinates": [ -92.9431, 46.02089 ] } },
{ "type": "Feature", "properties": { "name": "Allegheny River Lock & Dam No. 2", "city": "Pittsburgh", "county": "Allegheny", "state": "PA", "linkno": 760781192.0, "reach_id": 11050706.0, "num_fatalities": 2, "Qmin": 51.37791552, "Qmax": 845.7619051 }, "geometry": { "type": "Point", "coordinates": [ -79.9139, 40.48926 ] } },
{ "type": "Feature", "properties": { "name": "New Hope Dam near S Main St & Windy Bush Rd", "city": "New Hope", "county": "Bucks", "state": "PA", "linkno": 750117972.0, "reach_id": 2590217.0, "num_fatalities": 2, "Qmin": 49.77583222, "Qmax": 49.77583222 }, "geometry": { "type": "Point", "coordinates": [ -74.945728, 40.354844 ] } },
{ "type": "Feature", "properties": { "name": "Bushkill Creek dam just north of Bushkill Dr &amp; Zucksville Rd", "city": "Easton", "county": "Northampton", "state": "PA", "linkno": 750158810.0, "reach_id": 2588259.0, "num_fatalities": 2, "Qmin": 11.47237533, "Qmax": 217.0379118 }, "geometry": { "type": "Point", "coordinates": [ -75.244854, 40.721148 ] } },
{ "type": "Feature", "properties": { "name": "Red Hill Dam near Three Mile Island", "city": "Middletown", "county": "Dauphin", "state": "PA", "linkno": 750130409.0, "reach_id": 4710050.0, "num_fatalities": 2, "Qmin": 0.189999996, "Qmax": 167.4754129 }, "geometry": { "type": "Point", "coordinates": [ -76.7217, 40.14361 ] } },
{ "type": "Feature", "properties": { "name": "Dam adjacent to the Musgrove Country Club", "city": "Jasper", "county": "Walker", "state": "AL", "linkno": 750283313.0, "reach_id": 18591436.0, "num_fatalities": 1, "Qmin": 24.3342143, "Qmax": 226.4412449 }, "geometry": { "type": "Point", "coordinates": [ -87.282946, 33.906567 ] } },
{ "type": "Feature", "properties": { "name": "Jonestown Dam", "city": "Jonestown", "county": "Lebanon", "state": "PA", "linkno": 750099026.0, "reach_id": 4708722.0, "num_fatalities": 4, "Qmin": 760.4988882, "Qmax": 772.8374827 }, "geometry": { "type": "Point", "coordinates": [ -76.4895, 40.41621 ] } },
{ "type": "Feature", "properties": { "name": "Holtwood Dam", "city": "Holtwood", "county": "York", "state": "PA", "linkno": 750144626.0, "reach_id": 4726463.0, "num_fatalities": 2, "Qmin": null, "Qmax": null }, "geometry": { "type": "Point", "coordinates": [ -76.3371, 39.82648 ] } },
{ "type": "Feature", "properties": { "name": "York Haven Dam south of Three Mile Island", "city": "York Haven", "county": "York", "state": "PA", "linkno": 750117979.0, "reach_id": 4731357.0, "num_fatalities": 1, "Qmin": 995.3356682, "Qmax": 15346.25466 }, "geometry": { "type": "Point", "coordinates": [ -76.7116, 40.11429 ] } },
{ "type": "Feature", "properties": { "name": "B.F. Goodrich Dam", "city": "Collegeville", "county": "Montgomery", "state": "PA", "linkno": 750115016.0, "reach_id": 4781389.0, "num_fatalities": 1, "Qmin": 1.278333305, "Qmax": 6.780097207 }, "geometry": { "type": "Point", "coordinates": [ -75.4491, 40.2154 ] } },
{ "type": "Feature", "properties": { "name": "Remmel Dam near McGuire Rd", "city": "Malvern", "county": "Hot Spring", "state": "AR", "linkno": 760425558.0, "reach_id": 15237620.0, "num_fatalities": 1, "Qmin": null, "Qmax": null }, "geometry": { "type": "Point", "coordinates": [ -92.8941, 34.42693 ] } },
{ "type": "Feature", "properties": { "name": "Dam under Pine Flat Road Bridge", "city": "Sanger", "county": "Fresno", "state": "CA", "linkno": 710821756.0, "reach_id": 17149772.0, "num_fatalities": 2, "Qmin": 133.0596872, "Qmax": 513.7699885 }, "geometry": { "type": "Point", "coordinates": [ -119.336307, 36.830337 ] } },
{ "type": "Feature", "properties": { "name": "Opekiska Dam", "city": "Morgantown", "county": "Monongalia", "state": "WV", "linkno": 760784591.0, "reach_id": 3769784.0, "num_fatalities": 1, "Qmin": 7.577916497, "Qmax": 1646.797108 }, "geometry": { "type": "Point", "coordinates": [ -80.0507, 39.56456 ] } },
{ "type": "Feature", "properties": { "name": "Adam T. Bower Memorial Dam", "city": "Shamokin Dam", "county": "Snyder", "state": "PA", "linkno": 750161767.0, "reach_id": 4518742.0, "num_fatalities": 2, "Qmin": 55.51833209, "Qmax": 1695.933572 }, "geometry": { "type": "Point", "coordinates": [ -76.808, 40.84995 ] } },
{ "type": "Feature", "properties": { "name": "Dam near Brandywine Picnic Park", "city": "West Chester", "county": "Chester", "state": "PA", "linkno": 750125088.0, "reach_id": 4650732.0, "num_fatalities": 1, "Qmin": 0.394583325, "Qmax": 0.394583325 }, "geometry": { "type": "Point", "coordinates": [ -75.6333, 39.9163 ] } },
{ "type": "Feature", "properties": { "name": "Allegheny River Lock & Dam No. 3", "city": "Harmar", "county": "Allegheny", "state": "PA", "linkno": 760722948.0, "reach_id": 11050042.0, "num_fatalities": 1, "Qmin": 50.00874888, "Qmax": 50.00874888 }, "geometry": { "type": "Point", "coordinates": [ -79.815319, 40.538233 ] } },
{ "type": "Feature", "properties": { "name": "South Connellsville Dam", "city": "South Connellsville", "county": "Fayette", "state": "PA", "linkno": 760636463.0, "reach_id": 3808903.0, "num_fatalities": 1, "Qmin": 6.860416513, "Qmax": 637.5976016 }, "geometry": { "type": "Point", "coordinates": [ -79.5942, 39.99583 ] } },
{ "type": "Feature", "properties": { "name": "Point Marion Lock & Dam", "city": "Point Marion", "county": "Fayette", "state": "PA", "linkno": 760728003.0, "reach_id": 3768822.0, "num_fatalities": 1, "Qmin": 8.502916477, "Qmax": 1591.565275 }, "geometry": { "type": "Point", "coordinates": [ -79.9109, 39.72713 ] } },
{ "type": "Feature", "properties": { "name": "Vermilion River Dam near Lentman Lake", "city": "Streator", "county": "Livingston", "state": "IL", "linkno": 760666331.0, "reach_id": null, "num_fatalities": 1, "Qmin": null, "Qmax": null }, "geometry": { "type": "Point", "coordinates": [ -88.8137, 41.08751 ] } },
{ "type": "Feature", "properties": { "name": "Great Crossings Dam near Great Crossing Park", "city": "Georgetown", "county": "Scott", "state": "KY", "linkno": 760643253.0, "reach_id": 1825126.0, "num_fatalities": 2, "Qmin": 0.28999999399999998, "Qmax": 32.61679927 }, "geometry": { "type": "Point", "coordinates": [ -84.6053, 38.21627 ] } },
{ "type": "Feature", "properties": { "name": "Clear Creek near Golden", "city": "Golden", "county": "Jefferson", "state": "CO", "linkno": 760691392.0, "reach_id": 2885148.0, "num_fatalities": 1, "Qmin": 101.5324977, "Qmax": 101.5324977 }, "geometry": { "type": "Point", "coordinates": [ -105.219182, 39.758219 ] } },
{ "type": "Feature", "properties": { "name": "Bridge in Cannondale to Mouth", "city": "Norwalk", "county": "Fairfield", "state": "CT", "linkno": 750122687.0, "reach_id": 7732695.0, "num_fatalities": 1, "Qmin": 3.775590022, "Qmax": 149.3837467 }, "geometry": { "type": "Point", "coordinates": [ -73.4188, 41.11989 ] } },
{ "type": "Feature", "properties": { "name": "Upper Bondsville Dam", "city": "Bondsville", "county": "Hampden", "state": "MA", "linkno": 750161135.0, "reach_id": 7690565.0, "num_fatalities": 2, "Qmin": 9.428451417, "Qmax": 18.40666626 }, "geometry": { "type": "Point", "coordinates": [ -72.340866, 42.219221 ] } },
{ "type": "Feature", "properties": { "name": "Kimball Street Dam", "city": "Elgin", "county": "Kane", "state": "IL", "linkno": 760644624.0, "reach_id": 14771846.0, "num_fatalities": 2, "Qmin": 12.01874973, "Qmax": 55.93631999 }, "geometry": { "type": "Point", "coordinates": [ -88.2893, 42.04121 ] } },
{ "type": "Feature", "properties": { "name": "Barber Dam near Ann Morrison Park", "city": "Boise", "county": "Ada", "state": "ID", "linkno": 720204095.0, "reach_id": 23398895.0, "num_fatalities": 1, "Qmin": 139.1220426, "Qmax": 595.9954033 }, "geometry": { "type": "Point", "coordinates": [ -116.121683, 43.56052 ] } },
{ "type": "Feature", "properties": { "name": "Fox River Dam near Algonquin, IL", "city": "Algonquin", "county": "McHenry", "state": "IL", "linkno": 760656262.0, "reach_id": 14771760.0, "num_fatalities": 2, "Qmin": 11.14124975, "Qmax": 37.75870424 }, "geometry": { "type": "Point", "coordinates": [ -88.2901, 42.16566 ] } },
{ "type": "Feature", "properties": { "name": "Silver Bullet Rapid diversion dam", "city": "Buena Vista", "county": "Chaffee", "state": "CO", "linkno": 760694790.0, "reach_id": 917673.0, "num_fatalities": 1, "Qmin": 8.829999803, "Qmax": 200.7037455 }, "geometry": { "type": "Point", "coordinates": [ -106.11, 38.82867 ] } },
{ "type": "Feature", "properties": { "name": "Pumphouse Rapids diversion dam", "city": "Canon City", "county": "Fremont", "state": "CO", "linkno": 760711458.0, "reach_id": 921069.0, "num_fatalities": 1, "Qmin": null, "Qmax": null }, "geometry": { "type": "Point", "coordinates": [ -105.36, 38.47466 ] } },
{ "type": "Feature", "properties": { "name": "Kentucky Dam near I-24 bridge", "city": "Grand Rivers", "county": "Livingston", "state": "KY", "linkno": 760659987.0, "reach_id": 1868002.0, "num_fatalities": 1, "Qmin": 456.0558231, "Qmax": 5802.652787 }, "geometry": { "type": "Point", "coordinates": [ -88.2693, 37.01293 ] } },
{ "type": "Feature", "properties": { "name": "East Berlin Dam near Highway 234 bridge", "city": "East Berlin", "county": "Adams", "state": "PA", "linkno": 750107327.0, "reach_id": 4724617.0, "num_fatalities": 1, "Qmin": 0.968749978, "Qmax": 24.8129245 }, "geometry": { "type": "Point", "coordinates": [ -76.9894, 39.93981 ] } },
{ "type": "Feature", "properties": { "name": "Bowerstock Dam near Massachusetts Street", "city": "Lawrence", "county": "Douglas", "state": "KS", "linkno": 760758011.0, "reach_id": 3737637.0, "num_fatalities": 1, "Qmin": 3908.777829, "Qmax": 3908.777829 }, "geometry": { "type": "Point", "coordinates": [ -95.235623, 38.974349 ] } },
{ "type": "Feature", "properties": { "name": "Dam near Argonia River Park", "city": "Argonia", "county": "Sumner", "state": "KS", "linkno": 760598399.0, "reach_id": 20986051.0, "num_fatalities": 1, "Qmin": 0.25999999400000001, "Qmax": 4.365520732 }, "geometry": { "type": "Point", "coordinates": [ -97.7611, 37.24426 ] } },
{ "type": "Feature", "properties": { "name": "Lock 7 dam near Pleasant Hill", "city": "Wilmore", "county": "Jessamine", "state": "KY", "linkno": 760683220.0, "reach_id": 1827778.0, "num_fatalities": 1, "Qmin": 7.520416499, "Qmax": 393.3114813 }, "geometry": { "type": "Point", "coordinates": [ -84.724141, 37.829666 ] } },
{ "type": "Feature", "properties": { "name": "Terry Dam on Kentucky's Licking River", "city": "Cynthiana", "county": "Harrison", "state": "KY", "linkno": 760674858.0, "reach_id": 2057604.0, "num_fatalities": 3, "Qmin": 1.719999962, "Qmax": 2.830663267 }, "geometry": { "type": "Point", "coordinates": [ -84.2969, 38.38347672 ] } },
{ "type": "Feature", "properties": { "name": "Dam along San Gabriel River", "city": "Azusa", "county": "Los Angeles", "state": "CA", "linkno": 710595717.0, "reach_id": 948070466.0, "num_fatalities": 1, "Qmin": 320.105573, "Qmax": 696.9191511 }, "geometry": { "type": "Point", "coordinates": [ -117.914702, 34.159942 ] } },
{ "type": "Feature", "properties": { "name": "Z Dam", "city": "Richmond", "county": "Henrico", "state": "VA", "linkno": 750127519.0, "reach_id": 8574025.0, "num_fatalities": 4, "Qmin": 100.1982882, "Qmax": 831.3561323 }, "geometry": { "type": "Point", "coordinates": [ -77.5267, 37.55854 ] } },
{ "type": "Feature", "properties": { "name": "Little Falls Dam / Brookmont Dam", "city": "Glen Echo", "county": "Montgomery", "state": "MD", "linkno": 750118601.0, "reach_id": 4512772.0, "num_fatalities": 8, "Qmin": 43.66583236, "Qmax": 4471.698233 }, "geometry": { "type": "Point", "coordinates": [ -77.1296, 38.94831 ] } },
{ "type": "Feature", "properties": { "name": "Yates Cider Mill", "city": "Rochester Hills", "county": "Oakland", "state": "MI", "linkno": 740179957.0, "reach_id": 13184258.0, "num_fatalities": 2, "Qmin": 13.34864575, "Qmax": 97.63791448000001 }, "geometry": { "type": "Point", "coordinates": [ -83.094724, 42.674218 ] } },
{ "type": "Feature", "properties": { "name": "Dam near Newark Water Treatment Plant", "city": "Newark", "county": "Licking", "state": "OH", "linkno": 760638117.0, "reach_id": 15363281.0, "num_fatalities": 1, "Qmin": 1.722830082, "Qmax": 361.3699919 }, "geometry": { "type": "Point", "coordinates": [ -82.410808, 40.087347 ] } },
{ "type": "Feature", "properties": { "name": "Milltown Dam near Main St. Bridge", "city": "Milltown", "county": "Harrison", "state": "IN", "linkno": 760669867.0, "reach_id": 10357130.0, "num_fatalities": 1, "Qmin": 0.089999997999999998, "Qmax": 5.69850099 }, "geometry": { "type": "Point", "coordinates": [ -86.2741, 38.34039 ] } },
{ "type": "Feature", "properties": { "name": "Dam near Highway 127", "city": "Concan", "county": "Uvalde", "state": "TX", "linkno": 770459991.0, "reach_id": 10645809.0, "num_fatalities": 1, "Qmin": 3.275414313, "Qmax": 613.5399863 }, "geometry": { "type": "Point", "coordinates": [ -99.6976, 29.48506 ] } },
{ "type": "Feature", "properties": { "name": "Huron River Dam near Milford", "city": "Milford", "county": "Oakland", "state": "MI", "linkno": 740149051.0, "reach_id": 13173933.0, "num_fatalities": 1, "Qmin": 42.88708237, "Qmax": 42.88708237 }, "geometry": { "type": "Point", "coordinates": [ -83.6171, 42.58429 ] } },
{ "type": "Feature", "properties": { "name": "Dam near Morganton Water Filter Plant", "city": "Morganton", "county": "Burke", "state": "NC", "linkno": 750169008.0, "reach_id": 9753898.0, "num_fatalities": 1, "Qmin": 3.489999922, "Qmax": 37.20076159 }, "geometry": { "type": "Point", "coordinates": [ -81.729296, 35.739762 ] } },
{ "type": "Feature", "properties": { "name": "Low head dam near Apple Creek Country Club", "city": "Bismarck", "county": "Burleigh", "state": "ND", "linkno": 760496164.0, "reach_id": 14682302.0, "num_fatalities": 1, "Qmin": 118.7787473, "Qmax": 118.7787473 }, "geometry": { "type": "Point", "coordinates": [ -100.646803, 46.803836 ] } },
{ "type": "Feature", "properties": { "name": "Dam above Roosevelt Blvd.", "city": "Philadelphia", "county": "Philadelphia", "state": "PA", "linkno": 750094891.0, "reach_id": 4489178.0, "num_fatalities": 3, "Qmin": 0.73916665, "Qmax": 143.3974968 }, "geometry": { "type": "Point", "coordinates": [ -75.042508, 40.066314 ] } },
{ "type": "Feature", "properties": { "name": "Town of High Bridge to confluence with North Branch of the Raritan", "city": "High Bridge", "county": "Hunterdon", "state": "NJ", "linkno": 750144602.0, "reach_id": 9512992.0, "num_fatalities": 1, "Qmin": 0.345416659, "Qmax": 3.963616355 }, "geometry": { "type": "Point", "coordinates": [ -74.887751, 40.672306 ] } },
{ "type": "Feature", "properties": { "name": "Thompson Island Dam", "city": "Gansevoort", "county": "Saratoga", "state": "NY", "linkno": 750138023.0, "reach_id": 22288411.0, "num_fatalities": 1, "Qmin": 33.74791591, "Qmax": 229.6145646 }, "geometry": { "type": "Point", "coordinates": [ -73.5836, 43.18918 ] } },
{ "type": "Feature", "properties": { "name": "Starbuckville Dam south of Schroon Lake", "city": "Chestertown", "county": "Warren", "state": "NY", "linkno": 750085322.0, "reach_id": 22304373.0, "num_fatalities": 1, "Qmin": 2.458749945, "Qmax": 8.973480404 }, "geometry": { "type": "Point", "coordinates": [ -73.779, 43.67627 ] } },
{ "type": "Feature", "properties": { "name": "Wapato Diversion Dam; I-82 milepost 39", "city": "Wapato", "county": "Yakima", "state": "WA", "linkno": 720205765.0, "reach_id": 23099838.0, "num_fatalities": 2, "Qmin": 25.77499942, "Qmax": 1380.107052 }, "geometry": { "type": "Point", "coordinates": [ -120.477, 46.52429 ] } },
{ "type": "Feature", "properties": { "name": "Newfoundland (Rte 513) to Alt Rt 511, Pompton Lakes", "city": "Pequannock", "county": "Morris", "state": "NJ", "linkno": 750128611.0, "reach_id": 6250952.0, "num_fatalities": 1, "Qmin": null, "Qmax": null }, "geometry": { "type": "Point", "coordinates": [ -74.279107, 40.971435 ] } },
{ "type": "Feature", "properties": { "name": "Just north of the Boca Reservoir", "city": "Truckee", "county": "Nevada", "state": "CA", "linkno": 710736311.0, "reach_id": 8933494.0, "num_fatalities": 1, "Qmin": 45.20874899, "Qmax": 45.20874899 }, "geometry": { "type": "Point", "coordinates": [ -120.084609, 39.435772 ] } },
{ "type": "Feature", "properties": { "name": "Daniels Park by I-90", "city": "Willoughby", "county": "Lake", "state": "OH", "linkno": 740098036.0, "reach_id": 28123621.0, "num_fatalities": 2, "Qmin": 107.3465975, "Qmax": 281.5674937 }, "geometry": { "type": "Point", "coordinates": [ -81.4014, 41.63108 ] } },
{ "type": "Feature", "properties": { "name": "Bitterroot River Dam", "city": "Corvallis", "county": "Ravalli", "state": "MT", "linkno": 720193881.0, "reach_id": 24322938.0, "num_fatalities": 2, "Qmin": 0.02, "Qmax": 1.913541491 }, "geometry": { "type": "Point", "coordinates": [ -114.129016, 46.349045 ] } },
{ "type": "Feature", "properties": { "name": "Dam north of Neilan Boulevard", "city": "Hamilton", "county": "Butler", "state": "OH", "linkno": 760703065.0, "reach_id": 3885870.0, "num_fatalities": 1, "Qmin": 10.76458309, "Qmax": 212.5629035 }, "geometry": { "type": "Point", "coordinates": [ -84.556, 39.41291 ] } },
{ "type": "Feature", "properties": { "name": "Lowhead dam near Dayton", "city": "Dayton", "county": "Montgomery", "state": "OH", "linkno": 760696382.0, "reach_id": 3986452.0, "num_fatalities": 1, "Qmin": 3.923749912, "Qmax": 3.923749912 }, "geometry": { "type": "Point", "coordinates": [ -84.194, 39.77495 ] } },
{ "type": "Feature", "properties": { "name": "Seats Dam about a mile west of Rough and Read Botanical Wayside", "city": "Cave Junction", "county": "Josephine", "state": "OR", "linkno": 720079258.0, "reach_id": 23945145.0, "num_fatalities": 1, "Qmin": 190.2199957, "Qmax": 190.2199957 }, "geometry": { "type": "Point", "coordinates": [ -123.706529, 42.094564 ] } },
{ "type": "Feature", "properties": { "name": "Dam north of W Freedom Ave", "city": "Reedsville", "county": "Mifflin", "state": "PA", "linkno": 750145196.0, "reach_id": 4697437.0, "num_fatalities": 1, "Qmin": 1.476690915, "Qmax": 296.4574934 }, "geometry": { "type": "Point", "coordinates": [ -77.569358, 40.634027 ] } },
{ "type": "Feature", "properties": { "name": "Barberville Dam", "city": "Hope Valley", "county": "Washington", "state": "RI", "linkno": 750179508.0, "reach_id": 6140070.0, "num_fatalities": 1, "Qmin": 0.34999999199999998, "Qmax": 12.81725868 }, "geometry": { "type": "Point", "coordinates": [ -71.696021, 41.540622 ] } },
{ "type": "Feature", "properties": { "name": "Rockford Manufacturing Company Dam near Little River Rd", "city": "Rockford", "county": "Blount", "state": "TN", "linkno": 760645101.0, "reach_id": 22130051.0, "num_fatalities": 1, "Qmin": 1.785416627, "Qmax": 6.283883884 }, "geometry": { "type": "Point", "coordinates": [ -83.946488, 35.835314 ] } },
{ "type": "Feature", "properties": { "name": "Geneva Dam just above Highway 38 bridge", "city": "Geneva", "county": "Kane", "state": "IL", "linkno": 760593054.0, "reach_id": 14763157.0, "num_fatalities": 2, "Qmin": 13.07249971, "Qmax": 65.19147753 }, "geometry": { "type": "Point", "coordinates": [ -88.3021, 41.88813 ] } },
{ "type": "Feature", "properties": { "name": "North Aurora Dam just above State St. bridge", "city": "North Aurora", "county": "Kane", "state": "IL", "linkno": 760637986.0, "reach_id": 14762971.0, "num_fatalities": 1, "Qmin": 13.49416637, "Qmax": 168.1239743 }, "geometry": { "type": "Point", "coordinates": [ -88.3243, 41.80716 ] } },
{ "type": "Feature", "properties": { "name": "Milan Steel Dam", "city": "Milan", "county": "Rock Island", "state": "IL", "linkno": 760596414.0, "reach_id": 10609534.0, "num_fatalities": 3, "Qmin": 47.75249893, "Qmax": 47.75249893 }, "geometry": { "type": "Point", "coordinates": [ -90.548383, 41.461427 ] } },
{ "type": "Feature", "properties": { "name": "Peery's Mill Dam", "city": "Walland", "county": "Blount", "state": "TN", "linkno": 760575220.0, "reach_id": 22131159.0, "num_fatalities": 4, "Qmin": 0.88999998, "Qmax": 255.8443327 }, "geometry": { "type": "Point", "coordinates": [ -83.8366, 35.74904 ] } },
{ "type": "Feature", "properties": { "name": "Manson Pike Dam", "city": "Murfreesboro", "county": "Rutherford", "state": "TN", "linkno": 760628458.0, "reach_id": 18402673.0, "num_fatalities": 1, "Qmin": 0.234166661, "Qmax": 7.228098882 }, "geometry": { "type": "Point", "coordinates": [ -86.412394, 35.856204 ] } },
{ "type": "Feature", "properties": { "name": "Upper Dam near River Rd.", "city": "Decorah", "county": "Winneshiek", "state": "IA", "linkno": 760572975.0, "reach_id": 13336960.0, "num_fatalities": 1, "Qmin": 1.957499956, "Qmax": 13.49228027 }, "geometry": { "type": "Point", "coordinates": [ -91.6865, 43.32214 ] } },
{ "type": "Feature", "properties": { "name": "Dam near Handley Ederville Rd.", "city": "Fort Worth", "county": "Tarrant", "state": "TX", "linkno": 770514997.0, "reach_id": 1268386.0, "num_fatalities": 1, "Qmin": null, "Qmax": null }, "geometry": { "type": "Point", "coordinates": [ -97.2216, 32.78208 ] } },
{ "type": "Feature", "properties": { "name": "Englewood low-head dam", "city": "Englewood", "county": "Montgomery", "state": "OH", "linkno": 760706356.0, "reach_id": 3986322.0, "num_fatalities": 1, "Qmin": 0.492499989, "Qmax": 8.757891385000001 }, "geometry": { "type": "Point", "coordinates": [ -84.281368, 39.868825 ] } },
{ "type": "Feature", "properties": { "name": "Dam near Leslie County High School", "city": "Hyden", "county": "Leslie", "state": "KY", "linkno": 760666632.0, "reach_id": 487964.0, "num_fatalities": 1, "Qmin": 0.22999999500000001, "Qmax": 78.34711054 }, "geometry": { "type": "Point", "coordinates": [ -83.379665, 37.141687 ] } },
{ "type": "Feature", "properties": { "name": "Coffeeville Lock and Dam", "city": "Coffeeville", "county": "Choctaw", "state": "AL", "linkno": 750278635.0, "reach_id": 18548516.0, "num_fatalities": 1, "Qmin": 11601.85432, "Qmax": 11601.85432 }, "geometry": { "type": "Point", "coordinates": [ -88.129, 31.75739 ] } },
{ "type": "Feature", "properties": { "name": "Dam on Pattaconk Brook", "city": "Chester", "county": "Middlesex", "state": "CT", "linkno": 750103144.0, "reach_id": 7702638.0, "num_fatalities": 1, "Qmin": 0.02, "Qmax": 0.02 }, "geometry": { "type": "Point", "coordinates": [ -72.469624, 41.398495 ] } },
{ "type": "Feature", "properties": { "name": "Coon Rapids Dam", "city": "Coon Rapids", "county": null, "state": "MN", "linkno": 760607780.0, "reach_id": 1100598.0, "num_fatalities": 1, "Qmin": 108.0620809, "Qmax": 1504.684946 }, "geometry": { "type": "Point", "coordinates": [ -93.3111, 45.14366 ] } },
{ "type": "Feature", "properties": { "name": "Low Head Dam by W Monument Ave", "city": "Dayton", "county": "Montgomery", "state": "OH", "linkno": 760714687.0, "reach_id": 3883698.0, "num_fatalities": 1, "Qmin": 6.845416514, "Qmax": 12.50566265 }, "geometry": { "type": "Point", "coordinates": [ -84.2012, 39.76397 ] } },
{ "type": "Feature", "properties": { "name": "Black Rock Dam", "city": "Phoenixville", "county": "Montgomery", "state": "PA", "linkno": 750129817.0, "reach_id": 4782503.0, "num_fatalities": 2, "Qmin": 415.3370627, "Qmax": 1662.198204 }, "geometry": { "type": "Point", "coordinates": [ -75.506355, 40.148291 ] } },
{ "type": "Feature", "properties": { "name": "Dam on Cocalico Creek", "city": "Ephrata Township", "county": "Lancaster", "state": "PA", "linkno": 750099032.0, "reach_id": 4722187.0, "num_fatalities": 1, "Qmin": 0.373749992, "Qmax": 170.8683295 }, "geometry": { "type": "Point", "coordinates": [ -76.1927, 40.17595 ] } },
{ "type": "Feature", "properties": { "name": "Kanz Dam", "city": "Canyon Lake", "county": "Comal", "state": "TX", "linkno": 770561898.0, "reach_id": 1619601.0, "num_fatalities": 1, "Qmin": 1.959999956, "Qmax": 1380.307886 }, "geometry": { "type": "Point", "coordinates": [ -98.1608, 29.85662 ] } },
{ "type": "Feature", "properties": { "name": "Rocky Mount Water Treatment Plant diversion dam", "city": "Carrsville", "county": "Isle of Wight", "state": "VA", "linkno": 750084317.0, "reach_id": 8626855.0, "num_fatalities": 2, "Qmin": 0.29999999300000002, "Qmax": 67.59055913 }, "geometry": { "type": "Point", "coordinates": [ -79.8857, 37.04739 ] } },
{ "type": "Feature", "properties": { "name": "Waucoma Mill Dam", "city": "Waucoma", "county": "Fayette", "state": "IA", "linkno": 760494787.0, "reach_id": 13310289.0, "num_fatalities": 2, "Qmin": 0.029999998999999999, "Qmax": 172.3591628 }, "geometry": { "type": "Point", "coordinates": [ -92.033678, 43.054772 ] } },
{ "type": "Feature", "properties": { "name": "Adel Island Park Dam", "city": "Adel", "county": "Dallas", "state": "IA", "linkno": 760667953.0, "reach_id": 6610724.0, "num_fatalities": 2, "Qmin": 2.629383016, "Qmax": 696.8641511 }, "geometry": { "type": "Point", "coordinates": [ -94.0135, 41.62024 ] } },
{ "type": "Feature", "properties": { "name": "Fertile Dam", "city": "Fertile", "county": "Worth", "state": "IA", "linkno": 760538036.0, "reach_id": 6566163.0, "num_fatalities": 2, "Qmin": 0.40999999100000001, "Qmax": 75.36306382 }, "geometry": { "type": "Point", "coordinates": [ -93.4218, 43.26377 ] } },
{ "type": "Feature", "properties": { "name": "US Filter Dam", "city": "Ames", "county": "Story", "state": "IA", "linkno": 760588047.0, "reach_id": 6978934.0, "num_fatalities": 2, "Qmin": 0.079999998000000003, "Qmax": 0.530878931 }, "geometry": { "type": "Point", "coordinates": [ -93.6194, 42.06839 ] } },
{ "type": "Feature", "properties": { "name": "Joe Reasoner Dam", "city": "Humboldt", "county": "Humboldt", "state": "IA", "linkno": 760533085.0, "reach_id": 6588281.0, "num_fatalities": 1, "Qmin": 4.129999908, "Qmax": 37.64435119 }, "geometry": { "type": "Point", "coordinates": [ -94.2298, 42.72675 ] } },
{ "type": "Feature", "properties": { "name": "Markle Mill Dam on Otter Creek", "city": "Terre Haute", "county": "Vigo", "state": "IN", "linkno": null, "reach_id": 10283460.0, "num_fatalities": 1, "Qmin": 0.029999998999999999, "Qmax": 217.6854219 }, "geometry": { "type": "Point", "coordinates": [ -87.346, 39.52791 ] } },
{ "type": "Feature", "properties": { "name": "Antietam Creek Dam", "city": "Hagerstown", "county": "Washington", "state": "MD", "linkno": 750113255.0, "reach_id": 5891522.0, "num_fatalities": 1, "Qmin": 0.864166647, "Qmax": 264.0987441 }, "geometry": { "type": "Point", "coordinates": [ -77.71, 39.63059 ] } },
{ "type": "Feature", "properties": { "name": "8th street Bridge Low-Water Dam", "city": "Osawatomie", "county": "Miami", "state": "KS", "linkno": 760744736.0, "reach_id": 10113746.0, "num_fatalities": 1, "Qmin": 996.0420611, "Qmax": 996.0420611 }, "geometry": { "type": "Point", "coordinates": [ -94.956, 38.50305 ] } },
{ "type": "Feature", "properties": { "name": "Coffer Dam", "city": "Grand Rapids", "county": "Kent", "state": "MI", "linkno": 740292835.0, "reach_id": 9008387.0, "num_fatalities": 1, "Qmin": 23.39124948, "Qmax": 333.857889 }, "geometry": { "type": "Point", "coordinates": [ -85.6749, 42.97076 ] } },
{ "type": "Feature", "properties": { "name": "Caplinger Mills Dam", "city": "Stockton", "county": "Cedar", "state": "MO", "linkno": 760613334.0, "reach_id": 7371665.0, "num_fatalities": 1, "Qmin": 6.199999861, "Qmax": 99.07008788 }, "geometry": { "type": "Point", "coordinates": [ -93.8014, 37.79405 ] } },
{ "type": "Feature", "properties": { "name": "Robinson Dam", "city": "Berry", "county": "Harrison", "state": "KY", "linkno": 760713121.0, "reach_id": 2057508.0, "num_fatalities": 8, "Qmin": 1.920416624, "Qmax": 16.91720718 }, "geometry": { "type": "Point", "coordinates": [ -84.3544, 38.49143 ] } },
{ "type": "Feature", "properties": { "name": "Democrat Low Head Dam", "city": "Bakersfield", "county": "Kern", "state": "CA", "linkno": 710673027.0, "reach_id": 14946890.0, "num_fatalities": 1, "Qmin": 254.2233818, "Qmax": 629.9262359000001 }, "geometry": { "type": "Point", "coordinates": [ -118.801575, 35.43963 ] } },
{ "type": "Feature", "properties": { "name": "Kentucky Utility Low Head Dam", "city": "Pineville", "county": "Bell", "state": "KY", "linkno": 760650018.0, "reach_id": 10188930.0, "num_fatalities": 1, "Qmin": 1.438749968, "Qmax": 1.672859637 }, "geometry": { "type": "Point", "coordinates": [ -83.759531, 36.798226 ] } },
{ "type": "Feature", "properties": { "name": "Nice Mills Dam", "city": "Murfreesboro", "county": "Rutherford", "state": "TN", "linkno": 760588516.0, "reach_id": 18403561.0, "num_fatalities": 1, "Qmin": 743.7867037, "Qmax": 748.9203999 }, "geometry": { "type": "Point", "coordinates": [ -86.4643, 35.94102 ] } },
{ "type": "Feature", "properties": { "name": "Dam on South Yadkin River", "city": "Mocksville", "county": "Davie", "state": "NC", "linkno": 750161310.0, "reach_id": 9235661.0, "num_fatalities": 1, "Qmin": 2.721666606, "Qmax": 6.308738591 }, "geometry": { "type": "Point", "coordinates": [ -80.5627, 35.81048 ] } },
{ "type": "Feature", "properties": { "name": "6th Street Dam", "city": "Grand Rapids", "county": "Kent", "state": "MI", "linkno": 740292835.0, "reach_id": 9008387.0, "num_fatalities": 2, "Qmin": 1155.666224, "Qmax": 1155.666224 }, "geometry": { "type": "Point", "coordinates": [ -85.6746, 42.97444 ] } },
{ "type": "Feature", "properties": { "name": "Little Dam in the Sheyenne River", "city": "Valley City", "county": "Barnes County", "state": "ND", "linkno": 730042112.0, "reach_id": 14827487.0, "num_fatalities": 2, "Qmin": 1.9999999550000001, "Qmax": 126.6997522 }, "geometry": { "type": "Point", "coordinates": [ -97.9982, 46.91981 ] } },
{ "type": "Feature", "properties": { "name": "Lehiah River Chain Dam", "city": "Easton", "county": "Northampton County", "state": "PA", "linkno": 750153484.0, "reach_id": 4188251.0, "num_fatalities": 1, "Qmin": 12.40583306, "Qmax": 1259.970805 }, "geometry": { "type": "Point", "coordinates": [ -75.244779, 40.658989 ] } },
{ "type": "Feature", "properties": { "name": "John Thompson Dam", "city": "Edinburgh", "county": "Johnson", "state": "IN", "linkno": 760633181.0, "reach_id": 18461158.0, "num_fatalities": 1, "Qmin": 0.59999998700000001, "Qmax": 537.9372306 }, "geometry": { "type": "Point", "coordinates": [ -85.9766, 39.3561 ] } },
{ "type": "Feature", "properties": { "name": "Conewago Cr. Dam at Davidsburg Road, Detters Mill", "city": "Dover", "county": "York", "state": "PA", "linkno": 750115614.0, "reach_id": 4724345.0, "num_fatalities": 2, "Qmin": 1.092916642, "Qmax": 35.03542981 }, "geometry": { "type": "Point", "coordinates": [ -76.9326, 39.99024 ] } },
{ "type": "Feature", "properties": { "name": "Veteran, Schuyler, Catherine Creek", "city": "Millport", "county": "Chemung County", "state": "NY", "linkno": 740091279.0, "reach_id": 21983937.0, "num_fatalities": 1, "Qmin": null, "Qmax": null }, "geometry": { "type": "Point", "coordinates": [ -76.8351, 42.26642 ] } },
{ "type": "Feature", "properties": { "name": "Brushy Creek at Chisolm Trail Rd, Round Rock, TX", "city": "Round Rock", "county": "Williamson", "state": "TX", "linkno": 770394435.0, "reach_id": 5671189.0, "num_fatalities": 1, "Qmin": 425.9804071, "Qmax": 425.9804071 }, "geometry": { "type": "Point", "coordinates": [ -97.690413, 30.512934 ] } },
{ "type": "Feature", "properties": { "name": "Dam Adjacent to Erie Canal Lock 24 - West of Syracuse Street Bridge", "city": "Baldwinsville", "county": "Onondaga", "state": "NY", "linkno": 740217561.0, "reach_id": 21975021.0, "num_fatalities": 1, "Qmin": null, "Qmax": null }, "geometry": { "type": "Point", "coordinates": [ -76.3334, 43.15687 ] } },
{ "type": "Feature", "properties": { "name": "Ketner's Mill Dam", "city": "Whitwell", "county": "Marion", "state": "TN", "linkno": 760566944.0, "reach_id": 19663269.0, "num_fatalities": 4, "Qmin": 858.5116475, "Qmax": 858.5116475 }, "geometry": { "type": "Point", "coordinates": [ -85.517, 35.13891 ] } },
{ "type": "Feature", "properties": { "name": "Dodridge Street Low Head Dam", "city": "Columbus", "county": "Franklin", "state": "OH", "linkno": 760708012.0, "reach_id": 5215277.0, "num_fatalities": 1, "Qmin": 2.477499945, "Qmax": 40.70009587 }, "geometry": { "type": "Point", "coordinates": [ -83.0161, 40.01740085 ] } },
{ "type": "Feature", "properties": { "name": "Hosey Dam", "city": "Fort Wayne", "county": "Allen County", "state": "IN", "linkno": 740083285.0, "reach_id": 15668481.0, "num_fatalities": 1, "Qmin": 2.594583275, "Qmax": 58.72607667 }, "geometry": { "type": "Point", "coordinates": [ -85.1164, 41.08204258 ] } },
{ "type": "Feature", "properties": { "name": "Buffalo Creek in West Seneca", "city": "Buffalo", "county": "Erie", "state": "NY", "linkno": 740236395.0, "reach_id": 15574871.0, "num_fatalities": 1, "Qmin": 0.081666665, "Qmax": 174.2970794 }, "geometry": { "type": "Point", "coordinates": [ -78.7788, 42.86435418 ] } },
{ "type": "Feature", "properties": { "name": "Dam on Medina River", "city": "Bandera", "county": "Bandera", "state": "TX", "linkno": 770520302.0, "reach_id": 10833740.0, "num_fatalities": 1, "Qmin": 23.49498281, "Qmax": 150.3429133 }, "geometry": { "type": "Point", "coordinates": [ -99.069359, 29.722526 ] } },
{ "type": "Feature", "properties": { "name": "Washington Aqueduct Dam", "city": "Great Falls", "county": "Fairfax County", "state": "VA", "linkno": 750103800.0, "reach_id": 4507532.0, "num_fatalities": 1, "Qmin": 42.99874904, "Qmax": 2666.310733 }, "geometry": { "type": "Point", "coordinates": [ -77.2535, 39.0065364 ] } },
{ "type": "Feature", "properties": { "name": "Winchester Wasteway", "city": "Winchester", "county": "Grant County", "state": "WA", "linkno": 720239425.0, "reach_id": 947020474.0, "num_fatalities": 1, "Qmin": 0.473333323, "Qmax": 0.473333323 }, "geometry": { "type": "Point", "coordinates": [ -119.656887, 47.169537 ] } },
{ "type": "Feature", "properties": { "name": "Upper Sandusky", "city": "Upper Sandusky", "county": "Wyandot County", "state": "OH", "linkno": 740053734.0, "reach_id": 15614124.0, "num_fatalities": 1, "Qmin": 0.099999998000000007, "Qmax": 2.798342075 }, "geometry": { "type": "Point", "coordinates": [ -83.278869, 40.819429 ] } },
{ "type": "Feature", "properties": { "name": "Wisconsin Dells Dam", "city": "Wisconsin Dells", "county": "Sauk", "state": "WI", "linkno": 760534680.0, "reach_id": 14709862.0, "num_fatalities": 1, "Qmin": 69.33749845, "Qmax": 703.6683176 }, "geometry": { "type": "Point", "coordinates": [ -89.7816, 43.62678 ] } },
{ "type": "Feature", "properties": { "name": "Rochester Dam", "city": "Beaver Dam", "county": "Ohio", "state": "KY", "linkno": 760641666.0, "reach_id": 11628929.0, "num_fatalities": 1, "Qmin": 16.83499962, "Qmax": 422.4027919 }, "geometry": { "type": "Point", "coordinates": [ -86.9006, 37.21399354 ] } },
{ "type": "Feature", "properties": { "name": "Dravo Dam", "city": "Blacksburg", "county": "Cherokee", "state": "SC", "linkno": 750150080.0, "reach_id": 12035581.0, "num_fatalities": 1, "Qmin": 1323.204554, "Qmax": 1323.204554 }, "geometry": { "type": "Point", "coordinates": [ -81.5996, 35.13916 ] } },
{ "type": "Feature", "properties": { "name": "Elk River low head dam", "city": "Noel", "county": "McDonald", "state": "MO", "linkno": 760635061.0, "reach_id": 7600739.0, "num_fatalities": 4, "Qmin": 2031.35871, "Qmax": 2258.640366 }, "geometry": { "type": "Point", "coordinates": [ -94.497, 36.55300328 ] } },
{ "type": "Feature", "properties": { "name": "21st Street Bridge", "city": "Wichita", "county": "Sedgwick", "state": "KS", "linkno": 760506843.0, "reach_id": 21164835.0, "num_fatalities": 1, "Qmin": 53.43249881, "Qmax": 53.43249881 }, "geometry": { "type": "Point", "coordinates": [ -97.3191, 37.72363 ] } },
{ "type": "Feature", "properties": { "name": "Percha Dam", "city": "Arrey", "county": "Sierra", "state": "NM", "linkno": 770483793.0, "reach_id": 2537295.0, "num_fatalities": 1, "Qmin": 40.90999909, "Qmax": 326.3449413 }, "geometry": { "type": "Point", "coordinates": [ -107.304, 32.86855544 ] } },
{ "type": "Feature", "properties": { "name": "Argyle Power Plant Dam", "city": "Argyle", "county": "Lafayette County", "state": "WI", "linkno": 760556382.0, "reach_id": 13410428.0, "num_fatalities": 1, "Qmin": 785.3424824, "Qmax": 785.3424824 }, "geometry": { "type": "Point", "coordinates": [ -89.8689, 42.70137 ] } },
{ "type": "Feature", "properties": { "name": "Main Street Lowhead Dam", "city": "Charles City", "county": "Floyd", "state": "IA", "linkno": 760551363.0, "reach_id": 7016523.0, "num_fatalities": 1, "Qmin": 1.026666644, "Qmax": 31.10439889 }, "geometry": { "type": "Point", "coordinates": [ -92.6803, 43.06629 ] } },
{ "type": "Feature", "properties": { "name": "Demopolis Lock and Dam", "city": "Demopolis", "county": "Marengo", "state": "AL", "linkno": 750237767.0, "reach_id": 18540820.0, "num_fatalities": 1, "Qmin": 53.47416547, "Qmax": 8292.543736 }, "geometry": { "type": "Point", "coordinates": [ -87.8789, 32.52131 ] } },
{ "type": "Feature", "properties": { "name": "Dam By Manchester Bridge", "city": "Richmond", "county": "Henrico", "state": "VA", "linkno": 750117456.0, "reach_id": 8574037.0, "num_fatalities": 1, "Qmin": 211.2205062, "Qmax": 2780.579521 }, "geometry": { "type": "Point", "coordinates": [ -77.4427, 37.5313 ] } },
{ "type": "Feature", "properties": { "name": "Greenlawn Avenue Low Head Reservoir", "city": "Columbus", "county": "Franklin", "state": "OH", "linkno": 760771248.0, "reach_id": 5218161.0, "num_fatalities": 1, "Qmin": 6.411666523, "Qmax": 558.7485601 }, "geometry": { "type": "Point", "coordinates": [ -83.001, 39.94139 ] } },
{ "type": "Feature", "properties": { "name": "Fall River Bridge", "city": "Eureka", "county": "Greenwood", "state": "KS", "linkno": 760548434.0, "reach_id": 21515570.0, "num_fatalities": 1, "Qmin": 0.089999997999999998, "Qmax": 96.72948872000001 }, "geometry": { "type": "Point", "coordinates": [ -96.3013, 37.81745833 ] } },
{ "type": "Feature", "properties": { "name": "Dam on South Platte River", "city": "Brush", "county": "Morgan", "state": "CO", "linkno": 760741272.0, "reach_id": 3561664.0, "num_fatalities": 2, "Qmin": 41.70124907, "Qmax": 314.4096359 }, "geometry": { "type": "Point", "coordinates": [ -103.701435, 40.280717 ] } },
{ "type": "Feature", "properties": { "name": "Flatrock River dam north of Noblitt Park", "city": "Columbus", "county": "Bartholomew County", "state": "IN", "linkno": 760708072.0, "reach_id": 18458271.0, "num_fatalities": 1, "Qmin": 1009.319977, "Qmax": 1009.319977 }, "geometry": { "type": "Point", "coordinates": [ -85.9273, 39.21832804 ] } },
{ "type": "Feature", "properties": { "name": "Monkey Rock Low Head Dam", "city": "Saint Anthony", "county": "Fremont County", "state": "ID", "linkno": 720184215.0, "reach_id": 24471944.0, "num_fatalities": 1, "Qmin": 0.199583329, "Qmax": 0.199583329 }, "geometry": { "type": "Point", "coordinates": [ -111.614, 43.93405725 ] } },
{ "type": "Feature", "properties": { "name": "Kankanee Dam", "city": "Kankakee", "county": "Kankakee County", "state": "IL", "linkno": 760697945.0, "reach_id": 13438279.0, "num_fatalities": 2, "Qmin": 156.8119114, "Qmax": 809.0442768 }, "geometry": { "type": "Point", "coordinates": [ -87.8676, 41.11324 ] } },
{ "type": "Feature", "properties": { "name": "Dam near Washington Street bridge", "city": "Papillion", "county": "Sarpy County", "state": "NE", "linkno": 760551508.0, "reach_id": 17217754.0, "num_fatalities": 1, "Qmin": 211.3429119, "Qmax": 211.3429119 }, "geometry": { "type": "Point", "coordinates": [ -96.0424, 41.15555088 ] } },
{ "type": "Feature", "properties": { "name": "Dam on Poudre River", "city": "Laporte", "county": "Larimer County", "state": "CO", "linkno": 760669693.0, "reach_id": 2899795.0, "num_fatalities": 1, "Qmin": null, "Qmax": null }, "geometry": { "type": "Point", "coordinates": [ -105.1514379, 40.626006 ] } },
{ "type": "Feature", "properties": { "name": "Dam on Little West Fork", "city": "Clarksville", "county": "Montgomery", "state": "TN", "linkno": 760513585.0, "reach_id": 10169678.0, "num_fatalities": 1, "Qmin": 408.1524909, "Qmax": 408.1524909 }, "geometry": { "type": "Point", "coordinates": [ -87.4198, 36.60057 ] } },
{ "type": "Feature", "properties": { "name": "Clermont Dam", "city": "Clermont", "county": "Fayette", "state": "IA", "linkno": 760609608.0, "reach_id": 13310959.0, "num_fatalities": 1, "Qmin": 10.62527751, "Qmax": 925.616646 }, "geometry": { "type": "Point", "coordinates": [ -91.6584, 42.99795 ] } },
{ "type": "Feature", "properties": { "name": "Cedar Falls Dam", "city": "Cedar Falls", "county": "Black Hawk County", "state": "IA", "linkno": 760549738.0, "reach_id": 22472163.0, "num_fatalities": 3, "Qmin": 6.099999864, "Qmax": 614.0824283 }, "geometry": { "type": "Point", "coordinates": [ -92.448589, 42.539566 ] } },
{ "type": "Feature", "properties": { "name": "Dam near Dan River Stream Station", "city": "Eden", "county": "Rockingham", "state": "NC", "linkno": 750136428.0, "reach_id": 8677727.0, "num_fatalities": 1, "Qmin": 7.709583161, "Qmax": 162.4795552 }, "geometry": { "type": "Point", "coordinates": [ -79.72, 36.48529 ] } },
{ "type": "Feature", "properties": { "name": "Dam near Brenke Fish Ladder", "city": "Lansing", "county": "Ingham", "state": "MI", "linkno": 740169203.0, "reach_id": 12242484.0, "num_fatalities": 1, "Qmin": 5.614999874, "Qmax": 193.508387 }, "geometry": { "type": "Point", "coordinates": [ -84.550002, 42.745712 ] } },
{ "type": "Feature", "properties": { "name": "Little Sioux Dam", "city": "Little Sioux", "county": "Harrison", "state": "IA", "linkno": 760639645.0, "reach_id": 14625950.0, "num_fatalities": 1, "Qmin": 410.6515814, "Qmax": 1220.223723 }, "geometry": { "type": "Point", "coordinates": [ -95.9968, 41.86019339 ] } },
{ "type": "Feature", "properties": { "name": "Fontana Park Dam", "city": "Hazleton", "county": "Buchanan County", "state": "IA", "linkno": 760454885.0, "reach_id": 6948048.0, "num_fatalities": 1, "Qmin": 0.460859143, "Qmax": 76.49874829 }, "geometry": { "type": "Point", "coordinates": [ -91.9091, 42.60422222 ] } },
{ "type": "Feature", "properties": { "name": "Steamboat Rock Dam", "city": "Steamboat Rock", "county": "Hardin County", "state": "IA", "linkno": 760514802.0, "reach_id": 6572002.0, "num_fatalities": 1, "Qmin": 0.579999987, "Qmax": 206.7379213 }, "geometry": { "type": "Point", "coordinates": [ -93.0727, 42.40836682 ] } },
{ "type": "Feature", "properties": { "name": "Anamosa Dam", "city": "Anamosa", "county": "Jones County", "state": "IA", "linkno": 760631309.0, "reach_id": null, "num_fatalities": 1, "Qmin": null, "Qmax": null }, "geometry": { "type": "Point", "coordinates": [ -91.2919, 42.10110653 ] } },
{ "type": "Feature", "properties": { "name": "Wagaman Mill Dam", "city": "Lynnville", "county": "Jasper", "state": "IA", "linkno": 760568116.0, "reach_id": null, "num_fatalities": 1, "Qmin": null, "Qmax": null }, "geometry": { "type": "Point", "coordinates": [ -92.7828, 41.58096879 ] } },
{ "type": "Feature", "properties": { "name": "spillway dam for Guttenburg Lock & Dam 10", "city": "Guttenburg", "county": "Clayton", "state": "IA", "linkno": 760614616.0, "reach_id": 13326744.0, "num_fatalities": 1, "Qmin": 429.5074904, "Qmax": 2437.774556 }, "geometry": { "type": "Point", "coordinates": [ -91.0939, 42.78544 ] } },
{ "type": "Feature", "properties": { "name": "Palisades-Kepler Dam", "city": "Cedar Rapids", "county": "Linn", "state": "IA", "linkno": 760647962.0, "reach_id": 17556815.0, "num_fatalities": 3, "Qmin": 9.508333121, "Qmax": 396.5207212 }, "geometry": { "type": "Point", "coordinates": [ -91.507, 41.90136 ] } },
{ "type": "Feature", "properties": { "name": "Dam on North Platte River", "city": "Scottsbluff", "county": "Scotts Bluff", "state": "NE", "linkno": 760652961.0, "reach_id": 17509144.0, "num_fatalities": 1, "Qmin": 0.01, "Qmax": 0.01 }, "geometry": { "type": "Point", "coordinates": [ -103.606, 41.83577 ] } },
{ "type": "Feature", "properties": { "name": "Emrichsville Dam", "city": "Indianapolis", "county": "Marion", "state": "IN", "linkno": 760663099.0, "reach_id": 18476871.0, "num_fatalities": 3, "Qmin": 3.120833264, "Qmax": 1431.512468 }, "geometry": { "type": "Point", "coordinates": [ -86.195, 39.78698 ] } },
{ "type": "Feature", "properties": { "name": "Dam near Ohio Falls Power Plant", "city": "Louisville", "county": "Jefferson County", "state": "KY", "linkno": 760807986.0, "reach_id": 10164002.0, "num_fatalities": 2, "Qmin": null, "Qmax": null }, "geometry": { "type": "Point", "coordinates": [ -85.7804, 38.28288 ] } },
{ "type": "Feature", "properties": { "name": "Pueblo Whitewater Park", "city": "Pueblo", "county": "Pueblo", "state": "CO", "linkno": 760758066.0, "reach_id": 951029.0, "num_fatalities": 1, "Qmin": 41.43639787, "Qmax": 314.134993 }, "geometry": { "type": "Point", "coordinates": [ -104.657864, 38.267458 ] } },
{ "type": "Feature", "properties": { "name": "Dam near Monroe Fire station 2", "city": "Monroe", "county": "Monroe", "state": "MI", "linkno": 740099362.0, "reach_id": 13229618.0, "num_fatalities": 1, "Qmin": 1.95833329, "Qmax": 66.00439914 }, "geometry": { "type": "Point", "coordinates": [ -83.4203, 41.9237 ] } },
{ "type": "Feature", "properties": { "name": "Dam on Richland Creek", "city": "Richland County", "county": "Richland", "state": "TN", "linkno": 760540317.0, "reach_id": 19596010.0, "num_fatalities": 1, "Qmin": 985.1028946, "Qmax": 985.1028946 }, "geometry": { "type": "Point", "coordinates": [ -87.0394, 35.19387 ] } },
{ "type": "Feature", "properties": { "name": "South Platte River", "city": "Fort Morgan", "county": "Morgan", "state": "CO", "linkno": 760703001.0, "reach_id": 3561928.0, "num_fatalities": 2, "Qmin": 41.63749907, "Qmax": 60.56995403 }, "geometry": { "type": "Point", "coordinates": [ -103.834, 40.27519 ] } },
{ "type": "Feature", "properties": { "name": "Dam near N Salem Hwy", "city": "Madison County", "county": "Madison County", "state": "ID", "linkno": 720206044.0, "reach_id": 24469028.0, "num_fatalities": 1, "Qmin": 21.39394056, "Qmax": 373.5041583 }, "geometry": { "type": "Point", "coordinates": [ -111.778175, 43.882458 ] } },
{ "type": "Feature", "properties": { "name": "War Eagle Mill", "city": "War Eagle", "county": "Rogers", "state": "AR", "linkno": 760601803.0, "reach_id": 8587646.0, "num_fatalities": 2, "Qmin": 812.9299818, "Qmax": 812.9299818 }, "geometry": { "type": "Point", "coordinates": [ -93.943435, 36.267445 ] } },
{ "type": "Feature", "properties": { "name": "Dam near Haven Road", "city": "Albion", "county": "Calhoun County", "state": "MI", "linkno": 740106070.0, "reach_id": 3470983.0, "num_fatalities": 1, "Qmin": 0.690833318, "Qmax": 33.59666592 }, "geometry": { "type": "Point", "coordinates": [ -84.7494, 42.23909 ] } },
{ "type": "Feature", "properties": { "name": "Dam on Bull Creek", "city": "Forsyth", "county": "Taney", "state": "MO", "linkno": 760623396.0, "reach_id": 7624896.0, "num_fatalities": 1, "Qmin": 0.01, "Qmax": 437.0379069 }, "geometry": { "type": "Point", "coordinates": [ -93.1751, 36.7667 ] } },
{ "type": "Feature", "properties": { "name": "Crowhop dam", "city": "Harris County", "county": "Harris", "state": "GA", "linkno": 750278015.0, "reach_id": 3298646.0, "num_fatalities": 1, "Qmin": 961.4174785, "Qmax": 961.4174785 }, "geometry": { "type": "Point", "coordinates": [ -85.1529, 32.80016 ] } },
{ "type": "Feature", "properties": { "name": "Dam 4", "city": "Sharpsburg", "county": null, "state": "MD", "linkno": 750133387.0, "reach_id": 5894770.0, "num_fatalities": 1, "Qmin": 14.60749967, "Qmax": 174.4606835 }, "geometry": { "type": "Point", "coordinates": [ -77.8268, 39.49438 ] } },
{ "type": "Feature", "properties": { "name": "Calvary Dam", "city": "Lebanon", "county": "Marion", "state": "KY", "linkno": 760596716.0, "reach_id": 10302769.0, "num_fatalities": 2, "Qmin": 0.149999997, "Qmax": 511.2754052 }, "geometry": { "type": "Point", "coordinates": [ -85.2615, 37.51247 ] } },
{ "type": "Feature", "properties": { "name": "Enka Low-Head Dam", "city": "Newport", "county": "Hamblen", "state": "TN", "linkno": 760603477.0, "reach_id": 19488774.0, "num_fatalities": 1, "Qmin": 1189.708769, "Qmax": 1687.927046 }, "geometry": { "type": "Point", "coordinates": [ -83.212, 36.14579 ] } },
{ "type": "Feature", "properties": { "name": "Dam on Laurel Creek", "city": "Damascus", "county": "Washington", "state": "VA", "linkno": 760535215.0, "reach_id": 19751727.0, "num_fatalities": 1, "Qmin": 189.9004124, "Qmax": 189.9004124 }, "geometry": { "type": "Point", "coordinates": [ -81.7899, 36.63672 ] } },
{ "type": "Feature", "properties": { "name": "Long Tom River", "city": "Veneta", "county": null, "state": "OR", "linkno": 720243701.0, "reach_id": 23763081.0, "num_fatalities": 1, "Qmin": 196.0342537, "Qmax": 273.4008272 }, "geometry": { "type": "Point", "coordinates": [ -123.285711, 44.277122 ] } },
{ "type": "Feature", "properties": { "name": "Dam near Howell Island Conservation Area", "city": "St Louis", "county": "St Louis", "state": "MO", "linkno": null, "reach_id": 6010250.0, "num_fatalities": 1, "Qmin": 34.34458257, "Qmax": 34.34458257 }, "geometry": { "type": "Point", "coordinates": [ -90.6809, 38.66473 ] } },
{ "type": "Feature", "properties": { "name": "Dam on Conasauga Creek", "city": "Delano", "county": "Polk", "state": "TN", "linkno": 760536982.0, "reach_id": 19676227.0, "num_fatalities": 1, "Qmin": null, "Qmax": null }, "geometry": { "type": "Point", "coordinates": [ -84.5674, 35.27557 ] } },
{ "type": "Feature", "properties": { "name": "Low Head Dam on Pearl River", "city": "Sun", "county": "St. Tammany Parish", "state": "LA", "linkno": 760076411.0, "reach_id": 15708667.0, "num_fatalities": 1, "Qmin": null, "Qmax": null }, "geometry": { "type": "Point", "coordinates": [ -89.866011, 30.621201 ] } },
{ "type": "Feature", "properties": { "name": "Low Head Dam near Empire Weir", "city": "Stratford", "county": "Kings", "state": "CA", "linkno": 710708702.0, "reach_id": 17154762.0, "num_fatalities": 2, "Qmin": 46.24982699, "Qmax": 518.1312384 }, "geometry": { "type": "Point", "coordinates": [ -119.83325, 36.17838 ] } },
{ "type": "Feature", "properties": { "name": "Low Head Dam on Flint Creek", "city": "Flint Creek", "county": "Delaware", "state": "OK", "linkno": 760563536.0, "reach_id": 399514.0, "num_fatalities": 3, "Qmin": 0.189999996, "Qmax": 342.7162423 }, "geometry": { "type": "Point", "coordinates": [ -94.7068, 36.18656 ] } },
{ "type": "Feature", "properties": { "name": "Low Head Dam on Great Miami River", "city": "Sidney", "county": null, "state": "OH", "linkno": 760619799.0, "reach_id": 3983058.0, "num_fatalities": 1, "Qmin": 1.401666635, "Qmax": 3.935484053 }, "geometry": { "type": "Point", "coordinates": [ -84.1502, 40.29018 ] } },
{ "type": "Feature", "properties": { "name": "Pearl River Sill", "city": "Rio", "county": "Washington Parish", "state": "LA", "linkno": 760134641.0, "reach_id": 15708493.0, "num_fatalities": 1, "Qmin": 15.040833, "Qmax": 124.0062428 }, "geometry": { "type": "Point", "coordinates": [ -89.8458, 30.70393 ] } },
{ "type": "Feature", "properties": { "name": "Puritan Mill Dam", "city": "Athens", "county": null, "state": "GA", "linkno": 750238913.0, "reach_id": 1049857.0, "num_fatalities": 1, "Qmin": 59.08874868, "Qmax": 59.08874868 }, "geometry": { "type": "Point", "coordinates": [ -83.4024, 33.91161 ] } },
{ "type": "Feature", "properties": { "name": "Bleachery Dam", "city": "New Milford", "county": "Litchfield", "state": "CT", "linkno": 750208515.0, "reach_id": 7714492.0, "num_fatalities": 1, "Qmin": 5.113749886, "Qmax": 1345.969553 }, "geometry": { "type": "Point", "coordinates": [ -73.4114, 41.56584 ] } },
{ "type": "Feature", "properties": { "name": "Burlington City Dam", "city": "Burlington", "county": "Coffey", "state": "KS", "linkno": 760744755.0, "reach_id": 20888831.0, "num_fatalities": 2, "Qmin": 4.91999989, "Qmax": 921.1249794 }, "geometry": { "type": "Point", "coordinates": [ -95.7306, 38.20598 ] } },
{ "type": "Feature", "properties": { "name": "Olmstead Diversion Dam", "city": "Vivian Park", "county": "Utah", "state": "UT", "linkno": 710962441.0, "reach_id": 10375972.0, "num_fatalities": 1, "Qmin": 110.0362475, "Qmax": 110.0362475 }, "geometry": { "type": "Point", "coordinates": [ -111.58842, 40.349008 ] } },
{ "type": "Feature", "properties": { "name": "Cheatham Dam", "city": "Bethel", "county": "Cheatham", "state": "TN", "linkno": 760675015.0, "reach_id": 11884832.0, "num_fatalities": 1, "Qmin": 182.3085531, "Qmax": 4450.925984 }, "geometry": { "type": "Point", "coordinates": [ -87.2225, 36.31983 ] } },
{ "type": "Feature", "properties": { "name": "Low Head Dam near Broken Bow Lake", "city": "Broken Bow", "county": "McCurtain", "state": "OK", "linkno": 760269166.0, "reach_id": 630385.0, "num_fatalities": 1, "Qmin": 2.431249946, "Qmax": 139.9103059 }, "geometry": { "type": "Point", "coordinates": [ -94.667359, 34.125065 ] } },
{ "type": "Feature", "properties": { "name": "Spencer Mountain Dam", "city": "Spencer Mountain", "county": "Gaston", "state": "NC", "linkno": 750161916.0, "reach_id": 9747434.0, "num_fatalities": 1, "Qmin": 2.769999938, "Qmax": 658.6149853 }, "geometry": { "type": "Point", "coordinates": [ -81.1112, 35.30923 ] } },
{ "type": "Feature", "properties": { "name": "Buckhorn Dam", "city": "Buffalo Lake", "county": null, "state": "NC", "linkno": 750166646.0, "reach_id": 8842775.0, "num_fatalities": 1, "Qmin": 13.37666637, "Qmax": 2750.413149 }, "geometry": { "type": "Point", "coordinates": [ -78.9903, 35.53932 ] } },
{ "type": "Feature", "properties": { "name": "Loup Public Power Diversion Dam", "city": "Genoa", "county": null, "state": "NE", "linkno": 760606403.0, "reach_id": 17309900.0, "num_fatalities": 1, "Qmin": 8.06374982, "Qmax": 39.93513452 }, "geometry": { "type": "Point", "coordinates": [ -97.8232, 41.39236 ] } },
{ "type": "Feature", "properties": { "name": "Low Head Dam on Stoner Creek", "city": "North Middletown", "county": "Bourbon", "state": "KY", "linkno": 760575038.0, "reach_id": 2057786.0, "num_fatalities": 2, "Qmin": 2.598904036, "Qmax": 61.1816653 }, "geometry": { "type": "Point", "coordinates": [ -84.1267, 38.1474 ] } },
{ "type": "Feature", "properties": { "name": "Low Head Dam on St Joseph River", "city": "South Bend", "county": null, "state": "IN", "linkno": 740118194.0, "reach_id": 12265058.0, "num_fatalities": 1, "Qmin": 24.89958278, "Qmax": 308.0868348 }, "geometry": { "type": "Point", "coordinates": [ -86.2464, 41.67602 ] } },
{ "type": "Feature", "properties": { "name": "Dam near Wabash River", "city": "Eugene Township", "county": "Vermillion", "state": "IN", "linkno": null, "reach_id": 10209979.0, "num_fatalities": 1, "Qmin": null, "Qmax": null }, "geometry": { "type": "Point", "coordinates": [ -87.4181, 39.92172 ] } },
{ "type": "Feature", "properties": { "name": "Low Head Dam on Henry's Fork", "city": "Twin Groves", "county": null, "state": "ID", "linkno": 720235790.0, "reach_id": 23141649.0, "num_fatalities": 2, "Qmin": 22.1499995, "Qmax": 621.5029028 }, "geometry": { "type": "Point", "coordinates": [ -111.627402, 43.982828 ] } },
{ "type": "Feature", "properties": { "name": "Low Head Dam near Henefer, UT", "city": "Henefer", "county": null, "state": "UT", "linkno": 710853286.0, "reach_id": 10089912.0, "num_fatalities": 1, "Qmin": null, "Qmax": null }, "geometry": { "type": "Point", "coordinates": [ -111.485311, 41.011383 ] } },
{ "type": "Feature", "properties": { "name": "Courtner's Mill Dam", "city": "Normandy", "county": null, "state": "TN", "linkno": 760563592.0, "reach_id": 19533416.0, "num_fatalities": 1, "Qmin": 88.51083135, "Qmax": 88.51083135 }, "geometry": { "type": "Point", "coordinates": [ -86.2722, 35.47551 ] } },
{ "type": "Feature", "properties": { "name": "Ellis Lock", "city": "Zanesville", "county": null, "state": "OH", "linkno": 760766248.0, "reach_id": 15379475.0, "num_fatalities": 1, "Qmin": 26.06958275, "Qmax": 46.61030977 }, "geometry": { "type": "Point", "coordinates": [ -81.9775, 40.04334 ] } },
{ "type": "Feature", "properties": { "name": "Ager Falls", "city": "Lyonsdale", "county": "Lewis", "state": "NY", "linkno": 740265917.0, "reach_id": 15515168.0, "num_fatalities": 1, "Qmin": 513.2170719, "Qmax": 513.2170719 }, "geometry": { "type": "Point", "coordinates": [ -75.3117, 43.62147 ] } },
{ "type": "Feature", "properties": { "name": "Niles Dam", "city": "Niles", "county": null, "state": "MI", "linkno": 740141033.0, "reach_id": 12264996.0, "num_fatalities": 1, "Qmin": 114.7687626, "Qmax": 1073.951226 }, "geometry": { "type": "Point", "coordinates": [ -86.2591, 41.81771 ] } },
{ "type": "Feature", "properties": { "name": "Low Head Dam at Greencastle City Water Treatment Plant", "city": "Greencastle", "county": "Putnam", "state": "IN", "linkno": 760646471.0, "reach_id": 18464570.0, "num_fatalities": 1, "Qmin": 0.33999999199999997, "Qmax": 1.758343231 }, "geometry": { "type": "Point", "coordinates": [ -86.8664, 39.66728 ] } },
{ "type": "Feature", "properties": { "name": "Low Head Dam near St Charles Rd", "city": "Pueblo", "county": "Pueblo", "state": "CO", "linkno": null, "reach_id": 951237.0, "num_fatalities": 1, "Qmin": null, "Qmax": null }, "geometry": { "type": "Point", "coordinates": [ -104.5407041, 38.2150453 ] } },
{ "type": "Feature", "properties": { "name": "Low Head Dam near Blue Buff Road", "city": "Austin", "county": null, "state": "TX", "linkno": 770584764.0, "reach_id": 5781923.0, "num_fatalities": 1, "Qmin": 29.29166601, "Qmax": 143.2517294 }, "geometry": { "type": "Point", "coordinates": [ -97.6261, 30.25508 ] } },
{ "type": "Feature", "properties": { "name": "New York Haven Hydro Station", "city": "York Haven", "county": "Lancaster", "state": "PA", "linkno": 750137514.0, "reach_id": 4710054.0, "num_fatalities": 1, "Qmin": 15147.59549, "Qmax": 15147.59549 }, "geometry": { "type": "Point", "coordinates": [ -76.7196, 40.12185 ] } },
{ "type": "Feature", "properties": { "name": "High Shoals Dam", "city": "High Shoals", "county": "Gaston", "state": "NC", "linkno": 750145337.0, "reach_id": 9747422.0, "num_fatalities": 1, "Qmin": 2.312916615, "Qmax": 501.6729055 }, "geometry": { "type": "Point", "coordinates": [ -81.2025, 35.39654 ] } },
{ "type": "Feature", "properties": { "name": "Grande Point Power Dam", "city": "Three Rivers", "county": "St. Joseph", "state": "MI", "linkno": 740112798.0, "reach_id": 12262370.0, "num_fatalities": 2, "Qmin": 5.991249866, "Qmax": 302.9049932 }, "geometry": { "type": "Point", "coordinates": [ -85.624964, 41.940672 ] } },
{ "type": "Feature", "properties": { "name": "Osage Dam", "city": "Augusta", "county": "Butler", "state": "KS", "linkno": 760669919.0, "reach_id": 20081756.0, "num_fatalities": 4, "Qmin": 381.5591581, "Qmax": 381.5591581 }, "geometry": { "type": "Point", "coordinates": [ -96.9772, 37.67134 ] } },
{ "type": "Feature", "properties": { "name": "Mississippi River Lock and Dam 14", "city": "Hampton", "county": null, "state": "IL", "linkno": 760596405.0, "reach_id": 14804469.0, "num_fatalities": 1, "Qmin": null, "Qmax": null }, "geometry": { "type": "Point", "coordinates": [ -90.3979, 41.57182 ] } },
{ "type": "Feature", "properties": { "name": "Halls Mill Bridge", "city": "Shelbyville", "county": "Bedford", "state": "TN", "linkno": 760615170.0, "reach_id": 19532014.0, "num_fatalities": 1, "Qmin": 790.1537323, "Qmax": 790.1537323 }, "geometry": { "type": "Point", "coordinates": [ -86.5823, 35.55289 ] } },
{ "type": "Feature", "properties": { "name": "Low Head Dam near Rist Canyon Road", "city": "Bellvue", "county": null, "state": "CO", "linkno": 760727932.0, "reach_id": 2899741.0, "num_fatalities": 1, "Qmin": 210.0112453, "Qmax": 210.0112453 }, "geometry": { "type": "Point", "coordinates": [ -105.168, 40.63082 ] } },
{ "type": "Feature", "properties": { "name": "Low head dam near Prospect-Upper Sandusky Road", "city": "Green Camp", "county": null, "state": "OH", "linkno": 760706307.0, "reach_id": 5211913.0, "num_fatalities": 1, "Qmin": 327.768326, "Qmax": 327.768326 }, "geometry": { "type": "Point", "coordinates": [ -83.219, 40.55246 ] } },
{ "type": "Feature", "properties": { "name": "Low head dam on Kalamazoo River", "city": "Otsego", "county": "Allegan", "state": "MI", "linkno": 740190722.0, "reach_id": 3473537.0, "num_fatalities": 1, "Qmin": null, "Qmax": null }, "geometry": { "type": "Point", "coordinates": [ -85.6922, 42.46323 ] } },
{ "type": "Feature", "properties": { "name": "White's Mill Dam", "city": "Danville", "county": null, "state": "VA", "linkno": 750132281.0, "reach_id": 8696383.0, "num_fatalities": 1, "Qmin": 23.32532686, "Qmax": 528.3288386 }, "geometry": { "type": "Point", "coordinates": [ -79.3969, 36.59434 ] } },
{ "type": "Feature", "properties": { "name": "Low Head Dam Near Antrim Park", "city": "Columbus", "county": "Franklin", "state": "OH", "linkno": 760716327.0, "reach_id": 5215509.0, "num_fatalities": 1, "Qmin": 2.063333287, "Qmax": 16.89981473 }, "geometry": { "type": "Point", "coordinates": [ -83.0349, 40.07457 ] } },
{ "type": "Feature", "properties": { "name": "Silver Creek Dam / Providence Mill Dam", "city": "New Albany", "county": "Clark", "state": "IN", "linkno": 760674861.0, "reach_id": null, "num_fatalities": 1, "Qmin": null, "Qmax": null }, "geometry": { "type": "Point", "coordinates": [ -85.7916, 38.30070957 ] } },
{ "type": "Feature", "properties": { "name": "Low Head Dam connected to Ross Barnett Reservoir", "city": "Lena", "county": "Scott", "state": "MS", "linkno": 760174431.0, "reach_id": 15748618.0, "num_fatalities": 2, "Qmin": 1.428333301, "Qmax": 22.20103301 }, "geometry": { "type": "Point", "coordinates": [ -89.744855, 32.624168 ] } },
{ "type": "Feature", "properties": { "name": "Court Street Bridge Dam", "city": "Beatrice", "county": "Gage", "state": "NE", "linkno": 760764569.0, "reach_id": 18822050.0, "num_fatalities": 1, "Qmin": 52.64927371, "Qmax": 292.2064688 }, "geometry": { "type": "Point", "coordinates": [ -96.7541, 40.26571454 ] } },
{ "type": "Feature", "properties": { "name": "Fairbury Dam", "city": "Fairbury", "county": "Jefferson", "state": "NE", "linkno": 760706339.0, "reach_id": 4020261.0, "num_fatalities": 1, "Qmin": 0.080416665, "Qmax": 0.080416665 }, "geometry": { "type": "Point", "coordinates": [ -97.1833, 40.13146149 ] } },
{ "type": "Feature", "properties": { "name": "Guide Rock Diversion Dam", "city": "Guide Rock", "county": "Webster", "state": "NE", "linkno": 760842792.0, "reach_id": 19014281.0, "num_fatalities": 1, "Qmin": 14.03999969, "Qmax": 117.7466089 }, "geometry": { "type": "Point", "coordinates": [ -98.3769, 40.06844237 ] } },
{ "type": "Feature", "properties": { "name": "Tailrace Park Low Head Dam", "city": "Columbus", "county": "Platte", "state": "NE", "linkno": 760519873.0, "reach_id": 7301364.0, "num_fatalities": 1, "Qmin": 157.8466631, "Qmax": 190.9948186 }, "geometry": { "type": "Point", "coordinates": [ -97.2825, 41.40068568 ] } },
{ "type": "Feature", "properties": { "name": "Hepburn Street Dam", "city": "Williamsport", "county": "Lycoming", "state": "PA", "linkno": 750162348.0, "reach_id": 8153461.0, "num_fatalities": 4, "Qmin": 11.56166641, "Qmax": 1815.914808 }, "geometry": { "type": "Point", "coordinates": [ -77.005, 41.23368733 ] } },
{ "type": "Feature", "properties": { "name": "Neshaminy Weir Dam", "city": "Newtown", "county": "Bucks", "state": "PA", "linkno": 750091335.0, "reach_id": 4481579.0, "num_fatalities": 3, "Qmin": 0.479999989, "Qmax": 4.040409276 }, "geometry": { "type": "Point", "coordinates": [ -74.974361, 40.232472 ] } },
{ "type": "Feature", "properties": { "name": "Low head dam two miles downstream of Lake Amistad Dam", "city": "Amistad Village", "county": "Val Verde", "state": "TX", "linkno": 770519273.0, "reach_id": null, "num_fatalities": 1, "Qmin": null, "Qmax": null }, "geometry": { "type": "Point", "coordinates": [ -101.041577, 29.425023 ] } },
{ "type": "Feature", "properties": { "name": "Redfield Dam", "city": "Redfield", "county": "Dallas", "state": "IA", "linkno": 760656307.0, "reach_id": null, "num_fatalities": 1, "Qmin": null, "Qmax": null }, "geometry": { "type": "Point", "coordinates": [ -94.202941, 41.590699 ] } },
{ "type": "Feature", "properties": { "name": "Dam near Woodland Park Bridge", "city": "Hazard", "county": "Perry", "state": "KY", "linkno": 760616705.0, "reach_id": null, "num_fatalities": 1, "Qmin": null, "Qmax": null }, "geometry": { "type": "Point", "coordinates": [ -83.182735, 37.246054 ] } },
{ "type": "Feature", "properties": { "name": "Patriot Hydropower Dam near 2490 State Route 12", "city": "Port Leyden", "county": "Lewis", "state": "NY", "linkno": 740229634.0, "reach_id": null, "num_fatalities": 1, "Qmin": null, "Qmax": null }, "geometry": { "type": "Point", "coordinates": [ -75.324835, 43.545472 ] } },
{ "type": "Feature", "properties": { "name": "Upper Falls Dam", "city": "Tornado", "county": "Kanawha", "state": "WV", "linkno": 760689838.0, "reach_id": null, "num_fatalities": 1, "Qmin": null, "Qmax": null }, "geometry": { "type": "Point", "coordinates": [ -81.841647, 38.341749 ] } },
{ "type": "Feature", "properties": { "name": "Shawmut Dam", "city": "Benton", "county": "Kennebec", "state": "ME", "linkno": 750154561.0, "reach_id": 3322260.0, "num_fatalities": 1, "Qmin": 431.5607753, "Qmax": 2941.637018 }, "geometry": { "type": "Point", "coordinates": [ -69.582913, 44.631649 ] } },
{ "type": "Feature", "properties": { "name": "Bristol Mills Dam", "city": "Bristol", "county": "Lincoln", "state": "ME", "linkno": 750077616.0, "reach_id": 5204772.0, "num_fatalities": 1, "Qmin": 3.512499921, "Qmax": 3.512499921 }, "geometry": { "type": "Point", "coordinates": [ -69.509192, 43.960253 ] } },
{ "type": "Feature", "properties": { "name": "B Street power dam", "city": "Morrisville", "county": "Lamoille", "state": "VT", "linkno": 740428484.0, "reach_id": null, "num_fatalities": 1, "Qmin": null, "Qmax": null }, "geometry": { "type": "Point", "coordinates": [ -72.601787, 44.561828 ] } },
{ "type": "Feature", "properties": { "name": "Mitchell Dam", "city": "Mitchell", "county": "Mitchell", "state": "IA", "linkno": 760559663.0, "reach_id": 7015937.0, "num_fatalities": 1, "Qmin": 611.691653, "Qmax": 611.691653 }, "geometry": { "type": "Point", "coordinates": [ -92.881267, 43.318247 ] } },
{ "type": "Feature", "properties": { "name": "Ramsey Dam", "city": "Austin", "county": "Mower", "state": "MN", "linkno": 760471441.0, "reach_id": 7014355.0, "num_fatalities": 1, "Qmin": 1.736970432, "Qmax": 137.3658303 }, "geometry": { "type": "Point", "coordinates": [ -92.96012, 43.706464 ] } },
{ "type": "Feature", "properties": { "name": "Low Head Dam near Anaheim Street", "city": "Long Beach", "county": "Los Angeles", "state": "CA", "linkno": 710546137.0, "reach_id": null, "num_fatalities": 1, "Qmin": null, "Qmax": null }, "geometry": { "type": "Point", "coordinates": [ -118.205449, 33.782106 ] } },
{ "type": "Feature", "properties": { "name": "Lochmere Dam", "city": "Tilton", "county": "Belknap", "state": "NH", "linkno": 750082368.0, "reach_id": 6741658.0, "num_fatalities": 1, "Qmin": null, "Qmax": null }, "geometry": { "type": "Point", "coordinates": [ -71.533536, 43.473198 ] } },
{ "type": "Feature", "properties": { "name": "Low head dam near Power House Park", "city": "Fullerton", "county": "Nance", "state": "NE", "linkno": 760579779.0, "reach_id": null, "num_fatalities": 1, "Qmin": null, "Qmax": null }, "geometry": { "type": "Point", "coordinates": [ -97.965037, 41.375133 ] } },
{ "type": "Feature", "properties": { "name": "Low Level Dam", "city": "Hamilton", "county": "Butler", "state": "OH", "linkno": 760731356.0, "reach_id": null, "num_fatalities": 1, "Qmin": null, "Qmax": null }, "geometry": { "type": "Point", "coordinates": [ -84.567669, 39.379458 ] } },
{ "type": "Feature", "properties": { "name": "Magalia Head Dam", "city": "Magalia", "county": "Butte", "state": "CA", "linkno": 710857316.0, "reach_id": null, "num_fatalities": 1, "Qmin": null, "Qmax": null }, "geometry": { "type": "Point", "coordinates": [ -121.570943, 39.814026 ] } },
{ "type": "Feature", "properties": { "name": "Scotts Mill Dam", "city": "Madison Heights", "county": "Amherst", "state": "VA", "linkno": 750108579.0, "reach_id": 8552761.0, "num_fatalities": 1, "Qmin": 1807.615376, "Qmax": 1807.615376 }, "geometry": { "type": "Point", "coordinates": [ -79.141366, 37.424316 ] } },
{ "type": "Feature", "properties": { "name": "Broad Ripple Dam", "city": "Indianapolis", "county": "Marion", "state": "IN", "linkno": null, "reach_id": 18476393.0, "num_fatalities": 1, "Qmin": 2.619999941, "Qmax": 1319.922887 }, "geometry": { "type": "Point", "coordinates": [ -86.140224, 39.873567 ] } },
{ "type": "Feature", "properties": { "name": "Fairmount Dam", "city": "Philadelphia", "county": "Philadelphia", "state": "PA", "linkno": 750138109.0, "reach_id": 4784831.0, "num_fatalities": 1, "Qmin": 208.1841243, "Qmax": 945.3005311 }, "geometry": { "type": "Point", "coordinates": [ -75.18627718, 39.96718812 ] } },
{ "type": "Feature", "properties": { "name": "Coal Creek Low Head Dam", "city": "Covington", "county": "Fountain", "state": "IN", "linkno": 760678058.0, "reach_id": 10206293.0, "num_fatalities": 1, "Qmin": 156.0593573, "Qmax": 323.6241594 }, "geometry": { "type": "Point", "coordinates": [ -87.375576, 40.029869 ] } },
{ "type": "Feature", "properties": { "name": "Rockford Dam", "city": "Seymour", "county": "Jackson", "state": "IN", "linkno": 760739706.0, "reach_id": 18455443.0, "num_fatalities": 1, "Qmin": 1.844999959, "Qmax": 7.984340367 }, "geometry": { "type": "Point", "coordinates": [ -85.898507, 38.985693 ] } },
{ "type": "Feature", "properties": { "name": "Fort Ransom Low Head Dam", "city": "Fort Ransom", "county": "Ransom", "state": "ND", "linkno": 730033186.0, "reach_id": null, "num_fatalities": 1, "Qmin": null, "Qmax": null }, "geometry": { "type": "Point", "coordinates": [ -97.9306725, 46.5216896 ] } }
]
}
